year,party,candidate,state,city,latitude,longitude,full_address
2012,democrat,Obama,AK,Anchorage,61.1968,-149.873,"2602 Fairbanks Street, Anchorage, AK"
2012,democrat,Obama,AL,Birmingham,33.515701,-86.802498,"2201 1st Ave North, 1st Floor, Birmingham, AL"
2012,democrat,Obama,AR,North Little Rock,34.756401,-92.2696,"201 W Broadway, Suite G, North Little Rock, AR"
2012,democrat,Obama,AZ,Tucson,32.2351,-110.894,"4639 E. 1st, Tucson, AZ"
2012,democrat,Obama,AZ,Phoenix,33.505699,-112.075,"103 W Highland, Suite 101, Phoenix, AZ"
2012,democrat,Obama,CA,Los Angeles,34.020599,-118.405,"10401 Venice Blvd, 2nd floor, Los Angeles, CA"
2012,democrat,Obama,CA,Sacramento,38.553501,-121.425,"6760 Folsom Blvd., Sacramento, CA"
2012,democrat,Obama,CA,Los Angeles,33.991798,-118.331,"5444 Crenshaw Blvd. Suite 100, Los Angeles, CA"
2012,democrat,Obama,CA,Cathedral City,33.7813,-116.469,"67-555 East Palm Canyon Drive, Cathedral City, CA"
2012,democrat,Obama,CA,San Jose,37.335899,-121.893,"23 N. Market Street, San Jose, CA"
2012,democrat,Obama,CA,Los Angeles,33.975101,-118.254,"1167 East Florence Avenue, Los Angeles, CA"
2012,democrat,Obama,CA,San Diego,32.756401,-117.094,"4660 El Cajon Blvd., Suite 206, San Diego, CA"
2012,democrat,Obama,CA,Mountain View,37.389,-122.091,"1411 West El Camino Real, Mountain View, CA"
2012,democrat,Obama,CA,San Rafael,37.9729,-122.537,"1654 Second Street, San Rafael, CA"
2012,democrat,Obama,CA,Santa Monica,34.0154,-118.496,"1408 Third Street, 3rd Floor, Santa Monica, CA"
2012,democrat,Obama,CA,Oakland,37.805698,-122.271,"300 Frank Ogawa Plaza, Suite 410, Oakland, CA"
2012,democrat,Obama,CA,Pasadena,34.148399,-118.132,"140 N. Lake Street, Pasadena, CA"
2012,democrat,Obama,CA,San Francisco,37.764801,-122.433,"2278 Market Street, San Francisco, CA"
2012,democrat,Obama,CA,Van Nuys,34.1945,-118.466,"6819 Sepulveda Blvd., Suite 302, Van Nuys, CA"
2012,democrat,Obama,CO,Denver,39.730499,-104.988,"77 W 9th Avenue, Denver, CO"
2012,democrat,Obama,CO,Grand Junction,39.067501,-108.563,"546 Main Street, Suite 403, Grand Junction, CO"
2012,democrat,Obama,CO,Fort Collins,40.5826,-105.079,"401 S Mason Street, Fort Collins, CO"
2012,democrat,Obama,CO,Lakewood,39.740601,-105.107,"9797 W. Colfax, Suite 2-G, Lakewood, CO"
2012,democrat,Obama,CO,Pueblo,38.262402,-104.616,"330 S. Union Avenue, Pueblo, CO"
2012,democrat,Obama,CO,Colorado Springs,38.824501,-104.825,"24 E Rio Grande, Colorado Springs, CO"
2012,democrat,Obama,CO,Thornton,39.869301,-104.98,"550 E Thornton Pky, Suite 202, Thornton, CO"
2012,democrat,Obama,CO,Aurora,39.696701,-104.808,"15451 E Mississippi Avenue, Suite B, Aurora, CO"
2012,democrat,Obama,CO,Denver,39.711399,-105.027,"3131 W Alameda Avenue, Denver, CO"
2012,democrat,Obama,CO,Greeley,40.4119,-104.691,"807 17th Street, Suite G, Greeley, CO"
2012,democrat,Obama,CO,Boulder,40.020599,-105.266,"2206 Pearl Street, Boulder, CO"
2012,democrat,Obama,CO,Durango,37.269299,-107.879,"572 E. Third Avenue, 1st Floor, Durango, CO"
2012,democrat,Obama,CO,Glenwood Springs,39.544601,-107.325,"912 Grand Avenue, Glenwood Springs, CO"
2012,democrat,Obama,CO,Denver,39.760899,-104.973,"3100 Downing St, A, Denver, CO"
2012,democrat,Obama,CO,Loveland,40.4053,-105.084,"601 E. Eisenhower, Unit 18, Loveland, CO"
2012,democrat,Obama,CO,Longmont,40.137299,-105.131,"1811 Hover St, Unit G, Longmont, CO"
2012,democrat,Obama,CO,Littleton,39.581699,-105.132,"11757 W Ken Caryl Ave, Suite K, Littleton, CO"
2012,democrat,Obama,CO,Highlands Ranch,39.559898,-104.988,"36 W. Springer Dr., Highlands Ranch, CO"
2012,democrat,Obama,CO,Fountain,38.756901,-104.75,"5520 S. US Highway 85-87, Suite 105, Fountain, CO"
2012,democrat,Obama,CO,Silverthorne,39.6273,-106.063,"285 Summit Place, Silverthorne, CO"
2012,democrat,Obama,CO,Woodland Park,38.983398,-105.045,"1075 E Hwy 24, Woodland Park, CO"
2012,democrat,Obama,CO,Colorado Springs,38.942902,-104.775,"7608 N. Union Blvd., Unit E, Colorado Springs, CO"
2012,democrat,Obama,CO,Brighton,39.986801,-104.815,"637 E Bridge St, Brighton, CO"
2012,democrat,Obama,CO,Broomfield,39.914398,-105.072,"6821 W 120th Ave, Units C, D, E, Broomfield, CO"
2012,democrat,Obama,CO,Boulder,40.000198,-105.253,"2995 Baseline Rd, Suite 112, Boulder, CO"
2012,democrat,Obama,CO,Commerce City,39.827301,-104.917,"6143 E 72nd Ave, Commerce City, CO"
2012,democrat,Obama,CO,Steamboat Springs,40.483601,-106.83,"401 Lincoln Ave, Suite C, Steamboat Springs, CO"
2012,democrat,Obama,CO,Pueblo,38.270901,-104.586,"1402 E. 4th St, Pueblo, CO"
2012,democrat,Obama,CO,Arvada,39.837299,-105.082,"7705 Wadsworth Blvd, Unit I, Arvada, CO"
2012,democrat,Obama,CO,Edwards,39.644199,-106.596,"105 Edwards Village , A-103, Edwards, CO"
2012,democrat,Obama,CO,Evergreen,39.693600000000004,-105.357,"1153 Bergen Parkway, Unit K, Evergreen, CO"
2012,democrat,Obama,CO,Littleton,39.594501,-104.987,"26 E. Arapahoe Rd, Unit 26, Littleton, CO"
2012,democrat,Obama,CO,Aspen,39.189602,-106.816,"100 S. Spring St., Unit 5, Aspen, CO"
2012,democrat,Obama,CO,Denver,39.784302,-104.851,"4800 Oakland , Unit 1, Denver, CO"
2012,democrat,Obama,CO,Aurora,39.741001,-104.874,"9801 E. Colfax Ave, Unit 102, Aurora, CO"
2012,democrat,Obama,CO,Fort Collins,40.529301,-105.077,"4206 S. College Ave, Unit 109, Fort Collins, CO"
2012,democrat,Obama,CO,Auroroa,39.5658,-104.718,"7450 S. Gartrell , Unit B3, Auroroa, CO"
2012,democrat,Obama,CO,Salida,38.536701,-105.992,"142 W. 1st St, Salida, CO"
2012,democrat,Obama,CO,Grand Junction,39.106602,-108.638,"2454 HWY 6 & 50 , Suite 112, Grand Junction, CO"
2012,democrat,Obama,CO,Firestone,40.160599,-104.942,"8110 Weld County Rd 13, Unit S2, Firestone, CO"
2012,democrat,Obama,CO,Trinidad,37.188099,-104.498,"2124 Freedom Rd, Trinidad, CO"
2012,democrat,Obama,CO,Pagosa Springs,37.2663,-107.014,"527 San Juan St, Suite A, Pagosa Springs, CO"
2012,democrat,Obama,CO,Montrose,38.482899,-107.872,"823 E. Main St., Montrose, CO"
2012,democrat,Obama,CO,Gunnison,38.5522,-106.927,"722 N. Main St, Gunnison, CO"
2012,democrat,Obama,CO,Cortez,37.348598,-108.585,"2 W. Main St., Unit 4, Cortez, CO"
2012,democrat,Obama,CO,Carbondale,39.402302,-107.22,"946 Hwy 133, Carbondale, CO"
2012,democrat,Obama,CO,Denver,39.676701,-104.913,"2200-O S. Monaco Pkwy, Denver, CO"
2012,democrat,Obama,CO,Louisville,39.986801,-105.131,"1110 South Boulder Rd, Louisville, CO"
2012,democrat,Obama,CO,Boulder,40.0079,-105.276,"1159 13th St., Boulder, CO"
2012,democrat,Obama,CO,Alamosa,37.468201,-105.878,"1435 Main Street, Suite B, Alamosa, CO"
2012,democrat,Obama,CO,Fairplay,39.223801,-106.002,"526 Front St., Fairplay, CO"
2012,democrat,Obama,CO,Denver,39.770302,-105.044,"3867 Tennyson St., Denver, CO"
2012,democrat,Obama,CO,Greeley,40.384499,-104.787,"3050 67th Ave, Unit 101, Greeley, CO"
2012,democrat,Obama,CO,Telluride,37.937199,-107.811,"129 W Colorado Ave, Telluride, CO"
2012,democrat,Obama,CO,Fort Collins,40.574402,-105.098,"1205B W. Elizabeth St., Fort Collins, CO"
2012,democrat,Obama,CO,Parker,39.519501,-104.766,"10841 S. Crossroads Dr., Unit 15, Parker, CO"
2012,democrat,Obama,CO,Denver,39.698399,-104.904,"7150 Leetsdale Dr., Unit 316, Denver, CO"
2012,democrat,Obama,CO,Denver,39.644798,-104.903,"3980 Quebec St. Unit 160, Denver, CO"
2012,democrat,Obama,CO,Castle Rock,39.367901,-104.861,"116 S. Wilcox Street, Castle Rock, CO"
2012,democrat,Obama,CO,Denver,39.672199,-104.959,"2442 S. University Blvd, Denver, CO"
2012,democrat,Obama,CO,Westminster,39.842499,-105.024,"8020 Federal Blvd, Unit #5, Westminster, CO"
2012,democrat,Obama,CO,Arvada,39.812698,-105.136,"12324-B W. 64th Ave, Arvada, CO"
2012,democrat,Obama,CT,East Hartford,41.734001,-72.626099,"144 Main Street, Unit E, East Hartford, CT"
2012,democrat,Obama,CT,Bridgeport,41.178001,-73.193497,"360 Fairfield Avenue, 2nd Floor, Bridgeport, CT"
2012,democrat,Obama,DC,Washington,38.883999,-77.0084,"430 South Capitol Street, SE, Washington, DC"
2012,democrat,Obama,DE,New Castle,39.694901,-75.5979,"19 E. Commons Blvd., 2nd Floor, New Castle, DE"
2012,democrat,Obama,FL,Tampa,27.966801,-82.444199,"1702 N. 14th St.  (La Avenida Republica de Cuba), Tampa, FL"
2012,democrat,Obama,FL,Miami Beach,25.813999,-80.133598,"801 Arthur Godfrey Rd, 3rd Floor, Miami Beach, FL"
2012,democrat,Obama,FL,Orlando,28.553101,-81.361,"1516 Colonial Dr Suite 203, Orlando, FL"
2012,democrat,Obama,FL,Miami Gardens,25.939699,-80.280502,"4797 NW 183rd St, Miami Gardens, FL"
2012,democrat,Obama,FL,Lauderhill,26.165899,-80.227097,"3300 Inverrary Blvd Suite 300, Lauderhill, FL"
2012,democrat,Obama,FL,Boca Raton,26.403099,-80.076103,"6020 N Federal Highway Suite 2, Boca Raton, FL"
2012,democrat,Obama,FL,St. Petersburg,27.7712,-82.647903,"951 Central Ave, Suite A, St. Petersburg, FL"
2012,democrat,Obama,FL,Tallahassee,30.4478,-84.280701,"541 N Monroe St, Tallahassee, FL"
2012,democrat,Obama,FL,Jacksonville,30.3319,-81.660599,"608 N. Julia Street, Jacksonville, FL"
2012,democrat,Obama,FL,Daytona Beach,29.2026,-81.0429,"1020 W. International Speedway Blvd, Suite 201, 2nd floor, Daytona Beach, FL"
2012,democrat,Obama,FL,Sarasota,27.3391,-82.5326,"305 Gillespie Avenue, Sarasota, FL"
2012,democrat,Obama,FL,Pembroke Pines,26.027399,-80.312599,"2104 N. Flamingo Road, Pembroke Pines, FL"
2012,democrat,Obama,FL,Melbourne,28.0793,-80.605797,"907 E Strawbridge Avenue, 1st Floor, Melbourne, FL"
2012,democrat,Obama,FL,Fort Myers,26.6443,-81.8647,"1716 Fowler Street, Fort Myers, FL"
2012,democrat,Obama,FL,Riviera Beach,26.790701,-80.054298,"3520 Broadway, Riviera Beach, FL"
2012,democrat,Obama,FL,Gainesville,29.6502,-82.3218,"315 SE 2nd Avenue, Gainesville, FL"
2012,democrat,Obama,FL,Pinecrest,25.6654,-80.323997,"11315 S. Dixie Highway, Pinecrest, FL"
2012,democrat,Obama,FL,Palm Beach Gardens,26.881599,-80.106102,"4550 Donald Ross Road Suite 110, Palm Beach Gardens, FL"
2012,democrat,Obama,FL,Pensacola,30.4382,-87.240601,"2415 N Pace Blvd, Pensacola, FL"
2012,democrat,Obama,FL,Pompano Beach,26.2418,-80.101196,"950 N. Federal Highway Suite #201, Pompano Beach, FL"
2012,democrat,Obama,FL,Naples,26.1749,-81.713898,"5286 Golden Gate Parkway, 2, Naples, FL"
2012,democrat,Obama,FL,Wilton Manors,26.159201,-80.137703,"612 NE 26th Street, Wilton Manors, FL"
2012,democrat,Obama,FL,Panama City,30.1681,-85.659897,"1106 Harrison Ave #B, Panama City, FL"
2012,democrat,Obama,FL,Riverview,27.8936,-82.315598,"11215 Bloomingdale Ave, Riverview, FL"
2012,democrat,Obama,FL,Florida City,25.4604,-80.477898,"1380 North Krome Ave #101, Florida City, FL"
2012,democrat,Obama,FL,Sanford,28.811701,-81.282898,"1426 W. 1st Street, Sanford, FL"
2012,democrat,Obama,FL,Kissimmee,28.3011,-81.400803,"1004 Royal Street, Kissimmee, FL"
2012,democrat,Obama,FL,Quincy,30.5881,-84.576401,"17 E Jefferson St, Quincy, FL"
2012,democrat,Obama,FL,Wesley Chapel,28.240299,-82.3321,"29141 Chapel Park Dr, Wesley Chapel, FL"
2012,democrat,Obama,FL,Santa Rosa Beach,29.749001,-85.242302,"2890 Hwy 98 West, Unit 4-5, Santa Rosa Beach, FL"
2012,democrat,Obama,FL,Ocala,29.1877,-82.136902,"21 N. Magnolia Ave, Ocala, FL"
2012,democrat,Obama,FL,Largo,27.916599,-82.790298,"225 West Bay Dr, E4, Largo, FL"
2012,democrat,Obama,FL,Port St. Lucie,27.2717,-80.317703,"1060 SE Port St. Lucie Boulevard, Port St. Lucie, FL"
2012,democrat,Obama,FL,Lake City,30.1908,-82.637199,"200 N Marion Ave, Lake City, FL"
2012,democrat,Obama,FL,West Palm Beach,26.686399,-80.0541,"3008 S. Dixie Hwy, West Palm Beach, FL"
2012,democrat,Obama,FL,Cocoa,28.3829,-80.741997,"1521 N. Cocoa Blvd, Cocoa, FL"
2012,democrat,Obama,FL,Orange City,28.937099,-81.298599,"157 N. Industrial Dr, Orange City, FL"
2012,democrat,Obama,FL,Palm Coast,29.5536,-81.232201,"4882 Palm Coast Parkway, Palm Coast, FL"
2012,democrat,Obama,FL,Fort Lauderdale,26.128901,-80.180397,"1033 Sistrunk Boulevard, Suite 103, Fort Lauderdale, FL"
2012,democrat,Obama,FL,Clearwater,27.967899,-82.762001,"1820 Drew St, Clearwater, FL"
2012,democrat,Obama,FL,Orlando,28.583799,-81.206497,"3151 N Alafaya Trl, Suite 102, Orlando, FL"
2012,democrat,Obama,FL,Tampa,28.0257,-82.492996,"3105 W. Waters AVe, Suite 315, Tampa, FL"
2012,democrat,Obama,FL,Miami,25.771799,-80.230003,"2141 SW 1st St, Suite 204-205, Miami, FL"
2012,democrat,Obama,FL,Immokalee,26.420601,-81.417702,"201 N 1st St, Immokalee, FL"
2012,democrat,Obama,FL,Bradenton,27.491199,-82.575302,"918 West 14th St, Bradenton, FL"
2012,democrat,Obama,FL,New Port Richey,28.237499,-82.720596,"5647 Pine St, New Port Richey, FL"
2012,democrat,Obama,FL,Gainesville,29.678101,-82.3881,"2727 NW 43rd St, #4B, Gainesville, FL"
2012,democrat,Obama,FL,Spring Hill,28.5028,-82.5243,"5170 Mariner Blvd, Spring Hill, FL"
2012,democrat,Obama,FL,Hollywood,26.012501,-80.147102,"2001 Tyler St, Unit #8, Hollywood, FL"
2012,democrat,Obama,FL,Jacksonville,30.281,-81.522301,"11655 Central Parkway, 305, Jacksonville, FL"
2012,democrat,Obama,FL,Cape Coral,26.594,-81.942101,"3108 Del Prado Blvd South, #6, Cape Coral, FL"
2012,democrat,Obama,FL,Fort Pierce,27.444799,-80.3256,"300 South US Hwy 1, Fort Pierce, FL"
2012,democrat,Obama,FL,Orlando,28.4209,-81.403503,"9521 South Orange Blossom Trail, #104, Orlando, FL"
2012,democrat,Obama,FL,Sun City Center,27.711201,-82.351501,"129 South Pebble Beach Blvd, 100, Sun City Center, FL"
2012,democrat,Obama,FL,Jacksonville,30.4335,-81.676498,"1680 Dunn Ave, Suite 38, Jacksonville, FL"
2012,democrat,Obama,FL,Tallahassee,30.436701,-84.293503,"704 W Madison St, Tallahassee, FL"
2012,democrat,Obama,FL,Boynton Beach,26.495701,-80.089401,"3200 S. Congress, Suite 100, Boynton Beach, FL"
2012,democrat,Obama,FL,St. Augustine,29.8943,-81.313202,"Depot Plaza 3149 Ponce De Leon Blvd, Suite 1, St. Augustine, FL"
2012,democrat,Obama,FL,Lakeland,28.013201,-81.916496,"2254 E Edgewood Dr, Lakeland, FL"
2012,democrat,Obama,FL,Summerfield,28.997999,-81.999001,"15437 Highway 441, Unit C, Summerfield, FL"
2012,democrat,Obama,FL,Pinellas Park,27.839199,-82.727097,"6537 Park Blvd, Pinellas Park, FL"
2012,democrat,Obama,FL,Pine Hills,28.577101,-81.474503,"6900 Silver Star Rd, #118, Pine Hills, FL"
2012,democrat,Obama,FL,Palm City,27.1625,-80.309097,"4125 SW Martin Hwy, Suite 15, Palm City, FL"
2012,democrat,Obama,FL,Miami,25.727699,-80.246002,"3250 Grand Ave - First Floor, Miami, FL"
2012,democrat,Obama,FL,Titusville,28.612,-80.807503,"319 South Washington Ave, 1st Floor, Titusville, FL"
2012,democrat,Obama,FL,Casselberry,28.6542,-81.331596,"470 State Road 436, Casselberry, FL"
2012,democrat,Obama,FL,Fort Myers,26.5215,-81.900101,"8750 Gladiolus Dr, #12, Fort Myers, FL"
2012,democrat,Obama,FL,Wellington,26.674601,-80.248001,"12785 W. Forest Hill Boulevard, 8C, Wellington, FL"
2012,democrat,Obama,FL,Hialeah,25.866699,-80.294899,"419 W 49th St, Suite #104, Hialeah, FL"
2012,democrat,Obama,FL,Kissimmee,28.212999,-81.441002,"2970 Pleasant Hill Rd, Kissimmee, FL"
2012,democrat,Obama,FL,Apopka,28.692699,-81.552803,"2591 West Orange Blossom Trail, Apopka, FL"
2012,democrat,Obama,FL,Temple Terrace,28.054501,-82.395897,"5246 East Fowler, Suite 4, Temple Terrace, FL"
2012,democrat,Obama,FL,Port Charlotte,27.0175,-82.153503,"1032 Tamiami Trail, Unit #4, Port Charlotte, FL"
2012,democrat,Obama,FL,Coral Springs,26.2722,-80.229698,"7665 W Sample Rd, Suite #7665, Coral Springs, FL"
2012,democrat,Obama,FL,Miami,25.7941,-80.189201,"275 NE 18th St  STE 104, Miami, FL"
2012,democrat,Obama,FL,Belle Glade,26.68,-80.669899,"606 S. Main St, Belle Glade, FL"
2012,democrat,Obama,FL,Winter Park,28.598301,-81.360901,"200 N Denning Dr, Suite #5, Winter Park, FL"
2012,democrat,Obama,FL,Miami,25.699499,-80.382301,"7356 SW 117 Ave, Miami, FL"
2012,democrat,Obama,FL,Venice,27.097,-82.443901,"251 S Tamiami Tr, Venice, FL"
2012,democrat,Obama,FL,Vero Beach,27.641199,-80.399498,"2205 14th Ave, Suite 208, Vero Beach, FL"
2012,democrat,Obama,FL,DeLand,29.0317,-81.3041,"113 West Wisconsin Ave, DeLand, FL"
2012,democrat,Obama,FL,Miramar,25.993601,-80.279404,"6750 Pembroke Rd., Miramar, FL"
2012,democrat,Obama,FL,St. Petersburg,27.7493,-82.679298,"2108 34th St S, St. Petersburg, FL"
2012,democrat,Obama,FL,Lehigh Acres,26.6117,-81.642403,"411 Lee Blvd, Lehigh Acres, FL"
2012,democrat,Obama,FL,Tampa,27.932699,-82.507202,"3825 Henderson Blvd, Suite #405, Tampa, FL"
2012,democrat,Obama,FL,Key Largo,25.093599,-80.441803,"Cedar Towers, 99353 Overseas Hwy #2, Key Largo, FL"
2012,democrat,Obama,FL,North Miami,25.890301,-80.184898,"666 NE 125th St, Suite 232, North Miami, FL"
2012,democrat,Obama,FL,Lake Worth,26.615601,-80.054802,"609B Lake Ave, Lake Worth, FL"
2012,democrat,Obama,FL,Jacksonville,30.333599,-81.594002,"6317 Arlington Road, Jacksonville, FL"
2012,democrat,Obama,FL,Merritt,28.402901,-80.706802,"120 Venetian Way, Suite 19, Merritt, FL"
2012,democrat,Obama,FL,Naples,26.188801,-81.801598,"801 Anchor Rode Dr, #203, Naples, FL"
2012,democrat,Obama,FL,Miami,25.8333,-80.183197,"647 NW 62nd St, Bay #5, Miami, FL"
2012,democrat,Obama,FL,Tamarac,26.188101,-80.202904,"5467 N State Rd 7, Tamarac, FL"
2012,democrat,Obama,FL,Safety Harbor,28.013201,-82.696503,"701 Enterprise Rd, Suite 504, Safety Harbor, FL"
2012,democrat,Obama,FL,Eustis,28.8535,-81.685402,"12 E Magnolia Ave, Eustis, FL"
2012,democrat,Obama,FL,Lake Park,26.7988,-80.071404,"921 Park Ave, Lake Park, FL"
2012,democrat,Obama,FL,Pensacola,30.460501,-87.289703,"2829 W. Michigan Ave, Pensacola, FL"
2012,democrat,Obama,FL,South Miami,25.706499,-80.291298,"6001 SW 70th ST, Unit C102, South Miami, FL"
2012,democrat,Obama,FL,Oakland,28.5553,-81.628197,"2 West Oakland Ave., Oakland, FL"
2012,democrat,Obama,FL,Jacksonville,30.2484,-81.7463,"6357 103rd St, Jacksonville, FL"
2012,democrat,Obama,FL,Sebring,32.8507,-84.845703,"215 US 27 South, Unit 6, Sebring, FL"
2012,democrat,Obama,FL,Tampa,27.979799,-82.4851,"4228 N. Armenia Ave, Tampa, FL"
2012,democrat,Obama,FL,North Miami Beach,25.9147,-80.187599,"15158 NE 6th Ave, North Miami Beach, FL"
2012,democrat,Obama,FL,Plant City,28.0144,-82.123199,"103 E Martin Luther King Blvd, Plant City, FL"
2012,democrat,Obama,GA,Atlanta,33.755402,-84.381798,"171 Auburn Ave, Atlanta, GA"
2012,democrat,Obama,GA,Savannah,32.003399,-81.1092,"102 Oglethorpe Professional Court, suite 5, Savannah, GA"
2012,democrat,Obama,GA,Valdosta,30.8575,-83.289597,"103 Wayne Ave, Suite A, Valdosta, GA"
2012,democrat,Obama,GA,Carrolton,33.583,-85.078598,"302F North Park Street, Carrolton, GA"
2012,democrat,Obama,HI,Honolulu,21.2946,-157.856,"1050 Ala Moana Blvd, Suite 2150, Honolulu, HI"
2012,democrat,Obama,IA,Sioux City,42.470699,-96.354301,"4106 Morningside Ave, Sioux City, IA"
2012,democrat,Obama,IA,Cedar Rapids,41.976398,-91.624199,"2857 Mt Vernon Rd SE, Cedar Rapids, IA"
2012,democrat,Obama,IA,Iowa City,41.6633,-91.530899,"321 Market St, Suite 106, Iowa City, IA"
2012,democrat,Obama,IA,Council Bluffs,41.241001,-95.819199,"1851 Madison Ave, Suite 200, Council Bluffs, IA"
2012,democrat,Obama,IA,Waterloo,42.500198,-92.334702,"512 Mulberry Street, Waterloo, IA"
2012,democrat,Obama,IA,Des Moines,41.585602,-93.658096,"2932 Ingersoll Ave, Des Moines, IA"
2012,democrat,Obama,IA,Dubuque,42.505501,-90.7229,"3250 Kennedy Circle, Suite 6, Dubuque, IA"
2012,democrat,Obama,IA,Davenport,41.537399,-90.574799,"1706 Brady Street, Suite 205, Davenport, IA"
2012,democrat,Obama,IA,Mason City,43.154301,-93.200699,"219 North Federal, Mason City, IA"
2012,democrat,Obama,IA,Ames,42.0252,-93.621597,"413 Northwestern Ave #103, Ames, IA"
2012,democrat,Obama,IA,Clinton,41.824299,-90.2108,"224 22nd Place, Clinton, IA"
2012,democrat,Obama,IA,Fort Dodge,42.505699,-94.184196,"1014 Central Avenue, Fort Dodge, IA"
2012,democrat,Obama,IA,Marshalltown,42.049198,-92.9123,"26 E Main St, Marshalltown, IA"
2012,democrat,Obama,IA,Muscatine,41.4324,-91.040802,"1012 E 9th St, Muscatine, IA"
2012,democrat,Obama,IA,Ottumwa,41.0173,-92.410103,"224 E 2nd St, Ottumwa, IA"
2012,democrat,Obama,IA,Burlington,40.817101,-91.112602,"900 Osborn St, Burlington, IA"
2012,democrat,Obama,IA,Sioux City,42.505001,-96.404701,"520 14th Street, Sioux City, IA"
2012,democrat,Obama,IA,Cresco,43.373901,-92.116302,"218 N Elm, Cresco, IA"
2012,democrat,Obama,IA,Marion,42.031601,-91.611099,"119 Marion Blvd, Marion, IA"
2012,democrat,Obama,IA,Grinnell,41.744701,-92.725304,"806 5th Ave., #1, Grinnell, IA"
2012,democrat,Obama,IA,Denison,42.0173,-95.355301,"46 N. Main St, Denison, IA"
2012,democrat,Obama,IA,Boone,42.063801,-93.880798,"818 8th St, Boone, IA"
2012,democrat,Obama,IA,Oskaloosa,41.2953,-92.643799,"201 High Ave East, Oskaloosa, IA"
2012,democrat,Obama,IA,Clarinda,40.7383,-95.037598,"119 East Main St, Clarinda, IA"
2012,democrat,Obama,IA,Winterset,41.3344,-94.013,"108 East Court, Winterset, IA"
2012,democrat,Obama,IA,West Liberty,41.57,-91.264,"111 W. 3rd St, West Liberty, IA"
2012,democrat,Obama,IA,Iowa Falls,42.519299,-93.265297,"623 Washington Ave, Iowa Falls, IA"
2012,democrat,Obama,IA,Spencer,43.1427,-95.1446,"301 W Grand Ave, Spencer, IA"
2012,democrat,Obama,IA,Washington,41.2994,-91.693298,"225 West Main St, Washington, IA"
2012,democrat,Obama,IA,Cedar Rapids,41.963799,-91.727898,"4358 16th Ave SW, Cedar Rapids, IA"
2012,democrat,Obama,IA,Perry,41.840199,-94.105202,"1218 Second Street, Perry, IA"
2012,democrat,Obama,IA,Des Moines,41.630798,-93.697197,"3839 Merle Hay Road, Suite 250, Des Moines, IA"
2012,democrat,Obama,IA,Independence,42.4687,-91.891197,"322 1st St, E, Independence, IA"
2012,democrat,Obama,IA,Coralville,41.7094,-91.610901,"2781 Oakdale Blvd #1, Coralville, IA"
2012,democrat,Obama,IA,Ankeny,41.729099,-93.608002,"315 SW Maple Street , Unit E, Ankeny, IA"
2012,democrat,Obama,IA,Algona,43.082802,-94.214104,"1914 Highway 18 East, Algona, IA"
2012,democrat,Obama,IA,Fort Madison,40.629902,-91.312202,"827 Avenue H, Fort Madison, IA"
2012,democrat,Obama,IA,Mount Pleasant,40.966801,-91.5532,"124 N. Main Street, Mount Pleasant, IA"
2012,democrat,Obama,IA,Newton,41.699902,-93.053703,"108 1st Street N, Newton, IA"
2012,democrat,Obama,IA,Maquoketa,42.069,-90.665497,"107 S. Main St, Maquoketa, IA"
2012,democrat,Obama,IA,Indianola,41.358101,-93.569199,"701 W. Second Ave, Indianola, IA"
2012,democrat,Obama,IA,Waukee,41.617901,-93.865501,"225 NE Dartmoor Dr., Waukee, IA"
2012,democrat,Obama,IA,Columbus Junction,41.280102,-91.360703,"118 N. Walnut, Columbus Junction, IA"
2012,democrat,Obama,IA,Altoona,41.643501,-93.462502,"204 8th St. SE, Altoona, IA"
2012,democrat,Obama,IA,Elkader,42.8843,-91.409698,"114 Gunder Road, Elkader, IA"
2012,democrat,Obama,IA,Creston,41.058498,-94.3629,"212 W Montgomery, Creston, IA"
2012,democrat,Obama,IA,Fairfield,41.007599,-91.962799,"59 E Broadway, Fairfield, IA"
2012,democrat,Obama,IA,West Des Moines,41.593899,-93.749199,"3330 Westown Parkway Suite 15, West Des Moines, IA"
2012,democrat,Obama,IA,Oelwein,42.678299,-91.913399,"6 South Frederick, Oelwein, IA"
2012,democrat,Obama,IA,Charles City,43.068001,-92.6782,"220 North Main St, Charles City, IA"
2012,democrat,Obama,IA,Decorah,43.303902,-91.786201,"105 W Water St, Decorah, IA"
2012,democrat,Obama,IA,Carroll,42.069801,-94.8759,"813 US Highway 30 W, Carroll, IA"
2012,democrat,Obama,IA,Knoxville,41.318501,-93.097801,"112 S 2nd St, Knoxville, IA"
2012,democrat,Obama,IA,Vinton,42.162899,-92.029099,"905 D Ave, Vinton, IA"
2012,democrat,Obama,IA,Bettendorf,41.525501,-90.509201,"1630 State St, #3, Bettendorf, IA"
2012,democrat,Obama,IA,Cedar Falls,42.506401,-92.409203,"4302 University Ave, Cedar Falls, IA"
2012,democrat,Obama,IA,Centerville,40.734299,-92.875099,"314 N.12th ST, Centerville, IA"
2012,democrat,Obama,IA,Waverly,42.725899,-92.496201,"2020 W Bremer Ave, Waverly, IA"
2012,democrat,Obama,IA,Anamosa,42.1082,-91.286797000000007,"200 W Main St., Anamosa, IA"
2012,democrat,Obama,IA,Tipton,41.77,-91.128601,"112 W 5th Street, Tipton, IA"
2012,democrat,Obama,IA,Des Moines,41.552399,-93.625298,"3505 SW 9th, Des Moines, IA"
2012,democrat,Obama,IA,North Liberty,41.749599,-91.603699,"70 Circle Dr, Unit D, North Liberty, IA"
2012,democrat,Obama,IA,Storm Lake,42.646702,-95.1912,"813 Flindt Dr, Storm Lake, IA"
2012,democrat,Obama,IA,Toledo,41.995602,-92.578102,"114 E High St, Toledo, IA"
2012,democrat,Obama,IA,Keokuk,40.395302,-91.382599,"401 Main St Ste 3, Keokuk, IA"
2012,democrat,Obama,IA,Des Moines,41.604099,-93.573997,"2307 Hubbell Ave, Des Moines, IA"
2012,democrat,Obama,IA,Atlantic,41.405899,-95.013,"511 Chestnut St, Atlantic, IA"
2012,democrat,Obama,ID,Meridian,43.588402,-116.405,"943 W. Overland Rd., Suite 126, Meridian, ID"
2012,democrat,Obama,IL,Lombard,41.907902,-88.036598,"1000-7 Rohlwing Road, Lombard, IL"
2012,democrat,Obama,IL,Chicago,41.879002,-87.626099,"218 S Wabash St, Suite 500, Chicago, IL"
2012,democrat,Obama,IL,Rockford,42.272301,-89.095299,"119 N Church St, #100, Rockford, IL"
2012,democrat,Obama,IL,Hazel Crest,41.557201,-87.696899,"3310 W. 183rd St, Hazel Crest, IL"
2012,democrat,Obama,IN,Indianapolis,39.7882,-86.1549,"111 East 16th Street, Suite #1, Indianapolis, IN"
2012,democrat,Obama,KS,Prairie Village,38.965302,-94.638,"4500 W 90th Terrace, Suite 201, Prairie Village, KS"
2012,democrat,Obama,KY,Louisville,38.245899,-85.728203,"617 Baxter Ave., Louisville, KY"
2012,democrat,Obama,LA,New Orleans,29.969999,-90.105598,"4221 South Carrollton Ave. B, New Orleans, LA"
2012,democrat,Obama,MA,Boston,42.354198,-71.058899,"77 Summer St. 10th Floor, Boston, MA"
2012,democrat,Obama,MA,Holyoke,42.207901,-72.602898,"4 Open Square Suite 218, Holyoke, MA"
2012,democrat,Obama,MD,Kensington,39.0322,-77.073799,"3750 University Blvd. W., Kensington, MD"
2012,democrat,Obama,ME,Portland,43.668098,-70.279701,"533 Forest Ave, 2nd Floor, Portland, ME"
2012,democrat,Obama,ME,Bangor,44.801701,-68.768898,"205 Exchange Street, Bangor, ME"
2012,democrat,Obama,ME,Auburn,44.0975,-70.2286,"158 Court Street, Auburn, ME"
2012,democrat,Obama,MI,Detroit,42.339901,-83.061996,"2727 Second Avenue, Suite 200, Detroit, MI"
2012,democrat,Obama,MI,Ann Arbor,42.244099,-83.738602,"455 E. Eisenhower Pkwy, Suite 65, Ann Arbor, MI"
2012,democrat,Obama,MI,Pontiac,42.636902,-83.291397,"4 North Saginaw, Pontiac, MI"
2012,democrat,Obama,MI,Kalamazoo,42.258598,-85.5896,"3244 S. Westnedge Avenue, Kalamazoo, MI"
2012,democrat,Obama,MI,Dearborn,42.3218,-83.178001,"13742 Michigan Avenue, Dearborn, MI"
2012,democrat,Obama,MI,Lansing,42.733299,-84.512604,"2722 E. Michigan Avenue, Ste. 103, Lansing, MI"
2012,democrat,Obama,MI,Sterling Heights,42.568802,-83.029602,"37378 Van Dyke Avenue, Sterling Heights, MI"
2012,democrat,Obama,MI,Flint,42.9832,-83.676201,"4400 S. Saginaw, Suite 1370, Flint, MI"
2012,democrat,Obama,MI,Saginaw,43.418201,-83.963501,"122 North Michigan Avenue, Saginaw, MI"
2012,democrat,Obama,MI,Royal Oak,42.496101,-83.144798,"811 N. Main Street, Royal Oak, MI"
2012,democrat,Obama,MI,Grand Rapids,42.969299,-85.640099,"345 Fuller Avenue, NE, Suite 1, Grand Rapids, MI"
2012,democrat,Obama,MI,Warren,42.506302,-83.023499,"8322 E 12 Mile, Warren, MI"
2012,democrat,Obama,MI,Traverse City,44.755199,-85.600403,"703 Rose Street, Traverse City, MI"
2012,democrat,Obama,MI,Ann Arbor,42.283901,-83.747299,"325 Braun Court, Ann Arbor, MI"
2012,democrat,Obama,MI,Marquette,46.545799,-87.4105,"832 W. Washington Street, Marquette, MI"
2012,democrat,Obama,MI,Mount Pleasant,43.604698,-84.770599,"122 North Kinney Street, Mount Pleasant, MI"
2012,democrat,Obama,MI,Alpena,45.093201,-83.457298,"2205 US 23 S, Suite 126, Alpena, MI"
2012,democrat,Obama,MI,Brownstown,42.1693,-83.269402,"18708 Telegraph Rd., Brownstown, MI"
2012,democrat,Obama,MI,Muskegon,43.233799,-86.255798,"490 W. Western Ave, Muskegon, MI"
2012,democrat,Obama,MI,Wyandotte,42.197701,-83.151199,"3509 Biddle Avenue, Wyandotte, MI"
2012,democrat,Obama,MI,Jackson,42.247398,-84.417297,"500 W. Michigan Avenue, Suite 1, Jackson, MI"
2012,democrat,Obama,MI,Battle Creek,42.2985,-85.211098,"596 W. Columbia, Battle Creek, MI"
2012,democrat,Obama,MI,Benton Harbor,42.116798,-86.4534,"209 E. Main Street, Benton Harbor, MI"
2012,democrat,Obama,MI,Grosse Pointe Park,42.384998,-82.945198,"14929-14931 Charlevoix, Grosse Pointe Park, MI"
2012,democrat,Obama,MI,Ypsilanti,42.242001,-83.613197,"61 N. Huron, Ypsilanti, MI"
2012,democrat,Obama,MI,Southfield,42.504299,-83.222702,"29207 Southfield Road, Southfield, MI"
2012,democrat,Obama,MI,Detroit,42.443501,-83.142097,"20225 Livernois Avenue, Detroit, MI"
2012,democrat,Obama,MI,Detroit,42.326099,-83.081596,"2810 W. Vernor Highway, Detroit, MI"
2012,democrat,Obama,MN,Minneapolis,44.972198,-93.2183,"2722 University Ave SE, Minneapolis, MN"
2012,democrat,Obama,MN,Hopkins,44.924702,-93.413101,"1007 Main St, Hopkins, MN"
2012,democrat,Obama,MN,Duluth,46.784698,-92.100998,"210 W Superior St, Duluth, MN"
2012,democrat,Obama,MN,Saint Paul,44.946499,-93.139099,"920A Selby Ave, Saint Paul, MN"
2012,democrat,Obama,MN,Rochester,44.031601,-92.479897,"1107 7th St NW, Rochester, MN"
2012,democrat,Obama,MN,Eagan,44.827,-93.165298,"1380 Duckwood Dr, #103, Eagan, MN"
2012,democrat,Obama,MN,Minneapolis,44.999298,-93.299599,"1505 West Broadway Ave, Minneapolis, MN"
2012,democrat,Obama,MN,Coon Rapids,45.145802,-93.267303,"9696 University Avenue Northwest, Coon Rapids, MN"
2012,democrat,Obama,MN,Virginia,47.5196,-92.532898,"506 2nd Ave W, Virginia, MN"
2012,democrat,Obama,MN,Oakdale,44.998402,-92.964996,"6993 35th St N, Oakdale, MN"
2012,democrat,Obama,MN,Mankato,44.161701,-94.008102,"110 E. Liberty St., Mankato, MN"
2012,democrat,Obama,MN,St. Cloud,45.560699,-94.1576,"14 5th Ave S, #300, St. Cloud, MN"
2012,democrat,Obama,MO,St. Louis,38.634102,-90.207199,"1925 Washington Avenue, St. Louis, MO"
2012,democrat,Obama,MO,Kansas City,39.061901,-94.591698,"3600 Broadway St #108, Kansas City, MO"
2012,democrat,Obama,MS,Jackson,32.3102,-90.180801,"832 North Congress Street, Jackson, MS"
2012,democrat,Obama,MT,Bozeman,45.6782,-111.033,"234 E. Babcock St., Suite 1, Bozeman, MT"
2012,democrat,Obama,MT,Missoula,46.850101,-113.987,"800 Kensington LL3, Missoula, MT"
2012,democrat,Obama,NC,Raleigh,35.7794,-78.6371,"130 East Morgan, Raleigh, NC"
2012,democrat,Obama,NC,Greensboro,36.0746,-79.791801,"229 North Greene St, Greensboro, NC"
2012,democrat,Obama,NC,Fayetteville,35.0756,-78.925102,"894-B Elm Street, Fayetteville, NC"
2012,democrat,Obama,NC,Durham,35.987801,-78.900002,"401 East Lakewood, Durham, NC"
2012,democrat,Obama,NC,Wilmington,34.215199,-77.888298,"4401 Wrightsville Avenue, Wilmington, NC"
2012,democrat,Obama,NC,Chapel Hill,35.909901,-79.064102,"505 B West Franklin Street, Chapel Hill, NC"
2012,democrat,Obama,NC,Asheville,35.5909,-82.558197,"230 Hilliard Avenue, Asheville, NC"
2012,democrat,Obama,NC,Winston-Salem,36.098099,-80.2509,"633 W. 4th Street, Suite 110, Winston-Salem, NC"
2012,democrat,Obama,NC,Cary,35.7869,-78.784698,"237 W Chatham Street, Cary, NC"
2012,democrat,Obama,NC,Charlotte,35.229198,-80.835503,"301 East 9th Street, suite 160, Charlotte, NC"
2012,democrat,Obama,NC,Goldsboro,35.383999,-77.9963,"138 N Center St, Goldsboro, NC"
2012,democrat,Obama,NC,Lumberton,34.619701,-79.010002,"128 W 5th Street, Lumberton, NC"
2012,democrat,Obama,NC,Greenville,35.587898,-77.374603,"214 A E. Arlington St, Greenville, NC"
2012,democrat,Obama,NC,Charlotte,35.277699,-80.7285,"2750 E WT Harris Blvd Suite 100, Charlotte, NC"
2012,democrat,Obama,NC,Statesville,35.784698,-80.883904,"233 E Front Street, Statesville, NC"
2012,democrat,Obama,NC,Rocky Mount,35.960999,-77.827599,"2509 Sunset Ave, Rocky Mount, NC"
2012,democrat,Obama,NC,High Point,35.948898,-80.003899,"652 N Main St, High Point, NC"
2012,democrat,Obama,NC,Gastonia,35.262402,-81.1511,"1626 East Franklin Blvd, Suite B, Gastonia, NC"
2012,democrat,Obama,NC,Concord,35.444199,-80.600098,"528 Lake Concord Rd, Concord, NC"
2012,democrat,Obama,NC,Burlington,36.0951,-79.434601,"122 A N Main St, Burlington, NC"
2012,democrat,Obama,NC,Indian Trail,35.068699,-80.676903,"553 Indian Trail Road, Suite C, Indian Trail, NC"
2012,democrat,Obama,NC,Charlotte,35.216301,-80.883301,"1560 West Blvd., Suite B, Charlotte, NC"
2012,democrat,Obama,NC,Raleigh,35.825298,-78.606499,"2609 Atlantic Ave, Raleigh, NC"
2012,democrat,Obama,NC,Wilson,35.7248,-77.912804,"207 Tarboro St. W, Wilson, NC"
2012,democrat,Obama,NC,Henderson,36.326099,-78.404198,"219 S Garnett St, Henderson, NC"
2012,democrat,Obama,NC,Supply,34.037601,-78.225998,"1420 Old Ocean Highway, Supply, NC"
2012,democrat,Obama,NC,Louisburg,36.098999,-78.300499,"108 E. Nash Street, Louisburg, NC"
2012,democrat,Obama,NC,Salisbury,35.681099,-80.482002,"1411 W Innes Street, Salisbury, NC"
2012,democrat,Obama,NC,Hendersonville,35.3274,-82.468498,"1507 E Haywood Road, Hendersonville, NC"
2012,democrat,Obama,NC,Garner,35.7257,-78.642899,"148 Donmoor Court, Garner, NC"
2012,democrat,Obama,NC,Winston-Salem,36.147701,-80.264397,"8100 North Point Blvd  Suite N, Winston-Salem, NC"
2012,democrat,Obama,NC,Lexington,35.8279,-80.2733,"408-A National Blvd., Suite A, Lexington, NC"
2012,democrat,Obama,NC,Jacksonville,34.747601,-77.376602,"99 Village Drive Suite 6, Jacksonville, NC"
2012,democrat,Obama,NC,New Bern,35.106602,-77.053596,"1208 Pollock Street, New Bern, NC"
2012,democrat,Obama,NC,Kinston,35.270699,-77.6017,"1500 W Vernon, Kinston, NC"
2012,democrat,Obama,NC,Oxford,36.3106,-78.591103,"100 Broad St, Oxford, NC"
2012,democrat,Obama,NC,Sanford,35.482101,-79.1763,"143 Charlotte Ave, Suite 101, Sanford, NC"
2012,democrat,Obama,NC,Hickory,35.723499,-81.360901,"806 12th Street SW, Hickory, NC"
2012,democrat,Obama,NC,Shelby,35.2896,-81.540604,"236 S. Lafayette, Shelby, NC"
2012,democrat,Obama,NC,Charlotte,35.214901,-80.7808,"3704 Central Ave, Eastway Crossing Shopping Center, Charlotte, NC"
2012,democrat,Obama,NC,Roanoke Rapids,36.441898,-77.641998,"1620 E 10th Street, Suite 144, Roanoke Rapids, NC"
2012,democrat,Obama,NC,Durham,36.006401,-78.884201,"1418 Avondale Dr, Unit 10, Durham, NC"
2012,democrat,Obama,NC,Windsor,35.998299,-76.946503,"101 South King St., Windsor, NC"
2012,democrat,Obama,NC,Smithfield,35.515202,-78.326897,"822 N. Brightleaf Blvd, Smithfield, NC"
2012,democrat,Obama,NC,Boone,36.219101,-81.683502,"130 North Depot Street, Boone, NC"
2012,democrat,Obama,NC,Hillsborough,36.083401,-79.080002,"101 North Scotswood Boulevard, Suite K, Hillsborough, NC"
2012,democrat,Obama,NC,Elizabeth City,36.2994,-76.242203,"305 S Hughes Blvd, Elizabeth City, NC"
2012,democrat,Obama,NC,Rockingham,34.926998,-79.7584,"908 E. Broad Avenue, Rockingham, NC"
2012,democrat,Obama,NC,Charlotte,35.1413,-80.736504,"1805 Sardis Rd North, #110, Charlotte, NC"
2012,democrat,Obama,NC,Knightdale,35.8004,-78.475601,"861 Old Knight Road, Suite 107, Knightdale, NC"
2012,democrat,Obama,NC,Warsaw,35.000099,-78.094002,"206 North Front Street, Warsaw, NC"
2012,democrat,Obama,NC,Huntersville,35.408199,-80.863403,"14229 W. Reese Boulevard, Suite B-3, Huntersville, NC"
2012,democrat,Obama,NC,Fuquay-Varina,35.594002,-78.795097,"405 Broad Street, Fuquay-Varina, NC"
2012,democrat,Obama,NC,Fayetteville,35.028599,-78.962799,"3037-C Boone Trail Extension, Fayetteville, NC"
2012,democrat,Obama,ND,Fargo,46.874199,-96.790703,"720 Main Ave, Suite 203, Fargo, ND"
2012,democrat,Obama,NE,Omaha,41.2598,-96.031502,"347 N. 76th St, Omaha, NE"
2012,democrat,Obama,NH,Portsmouth,43.068802,-70.771004,"125 Brewery Lane, Portsmouth, NH"
2012,democrat,Obama,NH,Dover,43.205898,-70.875504,"660 Central Avenue, Unit 102, Dover, NH"
2012,democrat,Obama,NH,Nashua,42.762299,-71.466103,"97 Main Street, Nashua, NH"
2012,democrat,Obama,NH,Lebanon,43.639801,-72.256599,"85 Mechanic Street, Unit 140, Lebanon, NH"
2012,democrat,Obama,NH,Keene,42.932499,-72.288002,"294 West Street, Unit 3, Keene, NH"
2012,democrat,Obama,NH,Laconia,43.527802,-71.469902,"571 Main Street, Laconia, NH"
2012,democrat,Obama,NH,Exeter,42.9781,-70.9599,"134 Front Street, Exeter, NH"
2012,democrat,Obama,NH,Conway,43.978802,-71.118896,"6 Main Street, Unit A, Conway, NH"
2012,democrat,Obama,NH,Salem,42.783501,-71.217201,"202 Main Street, Unit G-1, Salem, NH"
2012,democrat,Obama,NH,Manchester,42.980999,-71.453003,"228 Maple Street, 3rd Floor, Manchester, NH"
2012,democrat,Obama,NH,Claremont,43.367599,-72.341103,"149 Pleasant St, Claremont, NH"
2012,democrat,Obama,NH,Peterborough,42.872299,-71.950104,"76 Grove Street, Peterborough, NH"
2012,democrat,Obama,NH,Plymouth,43.770802,-71.756798,"612 Tenney Mountain Highway, Plymouth, NH"
2012,democrat,Obama,NH,Berlin,44.470798,-71.1791,"217 Main Street, Berlin, NH"
2012,democrat,Obama,NH,Littleton,44.3064,-71.771599,"32 Main Street, 104, Littleton, NH"
2012,democrat,Obama,NH,Hampton,42.939701,-70.830803,"150 High Street, Hampton, NH"
2012,democrat,Obama,NH,Rochester,43.304798,-70.974098,"63 Hanson Street, Rochester, NH"
2012,democrat,Obama,NH,Epping,43.043098,-71.062599,"285 Calef Highway, Unit 12B, Epping, NH"
2012,democrat,Obama,NH,Milford,42.835602,-71.648003,"54 Nashua St, Milford, NH"
2012,democrat,Obama,NH,Concord,43.2043,-71.539497,"15 Green St., Concord, NH"
2012,democrat,Obama,NH,Derry,42.8759,-71.2995,"127 Rockingham Road, Unit 13, Derry, NH"
2012,democrat,Obama,NH,Durham,43.137402,-70.911598,"56 Dover Road, Durham, NH"
2012,democrat,Obama,NJ,East Brunswick,40.462101,-74.405701,"251 Route 18 South Suite 1007, East Brunswick, NJ"
2012,democrat,Obama,NM,Santa Fe,35.669899,-105.965,"1420 Cerrillos Road, Santa Fe, NM"
2012,democrat,Obama,NM,Albuquerque,35.078499,-106.599,"115 Montclaire Dr. SE, Albuquerque, NM"
2012,democrat,Obama,NM,Las Cruces,32.312302,-106.765,"151 S. Solano Suite D, Las Cruces, NM"
2012,democrat,Obama,NM,Albuquerque,35.1264,-106.706,"3809 Atrisco Drive NW Suite A, Albuquerque, NM"
2012,democrat,Obama,NM,Rio Rancho,35.2411,-106.691,"2218 Southern Blvd SE Suite 2 & 3, Rio Rancho, NM"
2012,democrat,Obama,NM,Las Vegas,35.595798,-105.216,"624 University Avenue Suite 100, Las Vegas, NM"
2012,democrat,Obama,NM,Cedar Crest,35.117901,-106.372,"12220 North Highway STE# 2, Cedar Crest, NM"
2012,democrat,Obama,NM,Bernalillo,35.3158,-106.546,"240 S Camino Del Pueblo, Suite E, Bernalillo, NM"
2012,democrat,Obama,NM,Taos,36.3708,-105.596,"1523 Paseo Del Pueblo Sur, Taos, NM"
2012,democrat,Obama,NM,Albuquerque,35.1021,-106.563,"7301 Indian School Road NE Suite A, Albuquerque, NM"
2012,democrat,Obama,NM,Albuquerque,35.0145,-106.715,"4250 Coors Blvd SW Unit A, Albuquerque, NM"
2012,democrat,Obama,NM,Anthony,32.009399,-106.606,"880 N. Anthony Drive Unit 10, Anthony, NM"
2012,democrat,Obama,NM,Gallup,35.533901,-108.759,"809 North Highway 491, Gallup, NM"
2012,democrat,Obama,NV,Reno,39.510502,-119.778,"1465 Terminal Way, Suite 1, Reno, NV"
2012,democrat,Obama,NV,Henderson,36.075901,-115.083,"2925 Green Valley Parkway , E, Henderson, NV"
2012,democrat,Obama,NV,Las Vegas,36.2178,-115.185,"3440 W Cheyenne Ave, Suite 300, Las Vegas, NV"
2012,democrat,Obama,NV,Las Vegas,36.180199,-115.062,"861 N Nellis, Suite 5, Las Vegas, NV"
2012,democrat,Obama,NV,Las Vegas,36.159801,-115.102,"3230 East Charleston, Suite 111, Las Vegas, NV"
2012,democrat,Obama,NV,Las Vegas,36.195999,-115.256,"7469 W. Lake Mead Blvd, suite 170, Las Vegas, NV"
2012,democrat,Obama,NV,Reno,39.5112,-119.804,"141 E. Pueblo, Suite B, Reno, NV"
2012,democrat,Obama,NV,Henderson,36.0116,-115.063,"1720 Horizon Ridge, #120, Henderson, NV"
2012,democrat,Obama,NV,Las Vegas,36.101398,-115.298,"4845 S Fort Apache Rd, suite D-1, Las Vegas, NV"
2012,democrat,Obama,NV,Las Vegas,36.042198,-115.225,"6030  W Windmill, #D, Las Vegas, NV"
2012,democrat,Obama,NV,Las Vegas,36.145,-115.266,"8010 W. Sahara Ave, Suite 235, Las Vegas, NV"
2012,democrat,Obama,NV,Las Vegas,36.1152,-115.09,"3870 E Flamingo, A-8, Las Vegas, NV"
2012,democrat,Obama,NV,Las Vegas,36.160999,-115.173,"860 S. Rancho Drive, Ste. 7, Las Vegas, NV"
2012,democrat,Obama,NV,Henderson,36.019798,-114.962,"400 College Drive, Suite H, Henderson, NV"
2012,democrat,Obama,NV,North Las Vegas,36.253799,-115.154,"5135 Camino al Norte, Ste. 230, North Las Vegas, NV"
2012,democrat,Obama,NV,Las Vegas,36.115398,-115.135,"1350 E. Flamingo, Ste. 20, Las Vegas, NV"
2012,democrat,Obama,NV,Las Vegas,36.253601,-115.243,"5061 N. Rainbow, Suite #150, Las Vegas, NV"
2012,democrat,Obama,NV,Las Vegas,36.144402,-115.063,"5105 E. Sahara Ave., Suite 150, Las Vegas, NV"
2012,democrat,Obama,NV,North Las Vegas,36.240101,-115.065,"4955 E. Craig Road, Ste. 15, North Las Vegas, NV"
2012,democrat,Obama,NV,Las Vegas,36.270699,-115.268,"7920 W Tropical Pkwy, #120, Las Vegas, NV"
2012,democrat,Obama,NV,Las Vegas,36.130901,-115.117,"2466 E. Desert Inn, Suite A, Las Vegas, NV"
2012,democrat,Obama,NV,Las Vegas,36.010502,-115.137,"9890 S. Maryland Parkway, Suite 203, Las Vegas, NV"
2012,democrat,Obama,NV,Reno,39.550301,-119.803,"2395 Tampa St, Suite A, Reno, NV"
2012,democrat,Obama,NV,Pahrump,36.202099,-115.975,"1201 S. Hwy 160, Suite 112, Pahrump, NV"
2012,democrat,Obama,NV,Sparks,39.535,-119.754,"834 Victorian Ave, Suite 204, Sparks, NV"
2012,democrat,Obama,NV,Las Vegas,36.1008,-115.14,"1055 E Tropicana, Suite 270, Las Vegas, NV"
2012,democrat,Obama,NY,Syracuse,43.051201,-76.121696,"222 Teall Ave Suite 101, Syracuse, NY"
2012,democrat,Obama,NY,New York,40.753601,-73.991898,"520 Eighth Ave, 20th Floor, New York, NY"
2012,democrat,Obama,NY,Mamaroneck,40.953701,-73.723503,"931A  Boston Post Road, Mamaroneck, NY"
2012,democrat,Obama,NY,Kingston,41.933899,-74.018799,"30 John Street, Kingston, NY"
2012,democrat,Obama,NY,Buffalo,42.947399,-78.847198,"1645 Hertel Ave, Buffalo, NY"
2012,democrat,Obama,OH,Cleveland,41.483101,-81.591202,"13100 Shaker Square Suite 5, Cleveland, OH"
2012,democrat,Obama,OH,Chillicothe,39.335201,-82.987099,"149 W. Water St., Chillicothe, OH"
2012,democrat,Obama,OH,Columbus,40.086399,-82.965103,"1973 E. Dublin-Granville Rd., Columbus, OH"
2012,democrat,Obama,OH,Dayton,39.757301,-84.184502,"411 E. Fifth St., Dayton, OH"
2012,democrat,Obama,OH,New Philadelphia,40.489799,-81.446297,"123 W. High Ave., New Philadelphia, OH"
2012,democrat,Obama,OH,Lima,40.742199,-84.104401,"226 N Main Street, Lima, OH"
2012,democrat,Obama,OH,Middletown,39.516701,-84.404198,"1028 Central Ave., Middletown, OH"
2012,democrat,Obama,OH,Athens,39.329399,-82.101097,"8 North Court St., Suite 302, Athens, OH"
2012,democrat,Obama,OH,Toledo,41.651402,-83.540802,"119 N. Ontario St., Toledo, OH"
2012,democrat,Obama,OH,Cincinnati,39.128502,-84.477501,"2718 Woodburn Ave., Cincinnati, OH"
2012,democrat,Obama,OH,Mentor,41.656399,-81.372398,"7537 Mentor Ave., Suite 20, Mentor, OH"
2012,democrat,Obama,OH,Parma,41.406502,-81.734703,"5734 Ridge Rd., Parma, OH"
2012,democrat,Obama,OH,Beavercreek,39.7281,-84.047203,"1337 Hanes Rd., Beavercreek, OH"
2012,democrat,Obama,OH,Youngstown,41.100498,-80.650398,"25 W Federal Plaza, Ste. 1, Youngstown, OH"
2012,democrat,Obama,OH,Cincinnati,39.289001,-84.526398,"1244 W Kemper Rd., Cincinnati, OH"
2012,democrat,Obama,OH,Warren,41.235199,-80.817101,"155 S. Park Ave., Warren, OH"
2012,democrat,Obama,OH,Bowling Green,41.376202,-83.649399,"123 E. Court St., Bowling Green, OH"
2012,democrat,Obama,OH,Columbus,39.994099,-83.006401,"1570 N. High St., Suite C10, Columbus, OH"
2012,democrat,Obama,OH,Mason,39.3606,-84.309502,"108 W. Main St., Mason, OH"
2012,democrat,Obama,OH,Wooster,40.799198,-81.936897,"135 N. Bever St., Wooster, OH"
2012,democrat,Obama,OH,Troy,40.039101,-84.202797,"6 E. Main St., Troy, OH"
2012,democrat,Obama,OH,Cincinnati,39.156601,-84.612198,"3722 Harrison Ave., Cincinnati, OH"
2012,democrat,Obama,OH,Heath,40.0373,-82.429604,"568 Hebron Rd., Heath, OH"
2012,democrat,Obama,OH,Steubenville,40.359901,-80.615097,"104 S. 4th St., Steubenville, OH"
2012,democrat,Obama,OH,Defiance,41.283699,-84.364502,"608 Clinton St., Defiance, OH"
2012,democrat,Obama,OH,Portsmouth,38.7388,-82.996002,"1018 Chillicothe St., Portsmouth, OH"
2012,democrat,Obama,OH,Zanesville,40.000198,-82.027397,"3935 Northpointe Dr., Zanesville, OH"
2012,democrat,Obama,OH,Columbus,39.973301,-82.901001,"3741 E. Broad St., Columbus, OH"
2012,democrat,Obama,OH,Sylvania,41.712399,-83.681396,"5834 Monroe St., Suite O, Sylvania, OH"
2012,democrat,Obama,OH,Mansfield,40.758099,-82.5149,"24 S. Park St., Mansfield, OH"
2012,democrat,Obama,OH,Ashtabula,41.8825,-80.799004,"2205 Lake Ave., Unit #8, Ashtabula, OH"
2012,democrat,Obama,OH,Canton,40.798401,-81.376701,"131 Cleveland Ave. SW, Canton, OH"
2012,democrat,Obama,OH,Springfield,39.940701,-83.835899,"1214 N. Bechtle Ave., Springfield, OH"
2012,democrat,Obama,OH,Lorain,41.465,-82.174797,"668 Broadway Ave., Lorain, OH"
2012,democrat,Obama,OH,Sandusky,41.455799,-82.711403,"218 Columbus Ave., Sandusky, OH"
2012,democrat,Obama,OH,Twinsburg,41.283699,-81.440498,"7995 Darrow Rd., Suite #3, Twinsburg, OH"
2012,democrat,Obama,OH,Boardman,41.055801,-80.6632,"4300 Market St., Boardman, OH"
2012,democrat,Obama,OH,Hilliard,40.0364,-83.156898,"4143 Main St., Hilliard, OH"
2012,democrat,Obama,OH,Niles,41.182899,-80.718498,"6 Youngstown Warren Rd., Niles, OH"
2012,democrat,Obama,OH,Kenton,40.6474,-83.609497,"101 1/2 N. Detroit St., Kenton, OH"
2012,democrat,Obama,OH,Springboro,39.562599,-84.262299,"843 W. Central Ave., Springboro, OH"
2012,democrat,Obama,OH,Ravenna,41.1581,-81.242599,"113 E. Main St., Suite A, Ravenna, OH"
2012,democrat,Obama,OH,Marion,40.587299,-83.128098,"123 E. Church St., Marion, OH"
2012,democrat,Obama,OH,Akron,41.110199,-81.570503,"1706 W. Market St., Akron, OH"
2012,democrat,Obama,OH,Kent,41.142502,-81.357201,"1307 South Water St., Kent, OH"
2012,democrat,Obama,OH,Port Clinton,41.513699,-82.921204,"131-A Maple St., Port Clinton, OH"
2012,democrat,Obama,OH,Cincinnati,39.1982,-84.546402,"5846 Hamilton Ave., Cincinnati, OH"
2012,democrat,Obama,OH,South Russell,41.432301,-81.338699,"5192 Chillicothe Rd., Suite 105, South Russell, OH"
2012,democrat,Obama,OH,Wapakoneta,40.570301,-84.195,"101 W. Auglaize St., Wapakoneta, OH"
2012,democrat,Obama,OH,Athens,39.334702,-82.054497,"1005 E. State St., Suite #2, Athens, OH"
2012,democrat,Obama,OH,Tiffin,41.1143,-83.176498,"112 S. Washington St., Tiffin, OH"
2012,democrat,Obama,OH,Dayton,39.630699,-84.191498,"679 Lyons Rd., Dayton, OH"
2012,democrat,Obama,OH,Milford,39.196602,-84.2397,"5989 Meijer Dr., Suite 1, Milford, OH"
2012,democrat,Obama,OH,Westerville,40.124901,-82.945999,"405 W. Main St., Westerville, OH"
2012,democrat,Obama,OH,Columbus,39.966202,-82.990501,"1005 E. Long St., Suite 2 & 3, Columbus, OH"
2012,democrat,Obama,OH,Oxford,39.509499,-84.743599,"32 W. Walnut St., Oxford, OH"
2012,democrat,Obama,OH,West Chester,39.3713,-84.386398,"7232 Towne Centre Dr., West Chester, OH"
2012,democrat,Obama,OH,Lisbon,40.7845,-80.773499,"7843 State Route 45, Lisbon, OH"
2012,democrat,Obama,OH,Trotwood,39.8134,-84.269402,"4815 Salem Ave., Trotwood, OH"
2012,democrat,Obama,OH,Cincinnati,39.108601,-84.511398,"1130 Main St., Cincinnati, OH"
2012,democrat,Obama,OH,New Richmond,38.951099,-84.283401,"200 Front St., New Richmond, OH"
2012,democrat,Obama,OH,Martins Ferry,40.094601,-80.7257,"301 S. 4th St., Martins Ferry, OH"
2012,democrat,Obama,OH,Napoleon,41.3913,-84.122803,"630 Monroe St., Napoleon, OH"
2012,democrat,Obama,OH,Canfield,41.0247,-80.733704,"4478 Boardman-Canfield Rd., Suite A, Canfield, OH"
2012,democrat,Obama,OH,Cincinnati,39.285801,-84.309502,"11904 Montgomery Rd., Cincinnati, OH"
2012,democrat,Obama,OH,Dayton,39.853901,-84.187897,"7250 Poe Ave., Dayton, OH"
2012,democrat,Obama,OH,Delaware,40.292599,-83.068298,"177 S. Sandusky St., Delaware, OH"
2012,democrat,Obama,OH,Cincinnati,39.196899,-84.458801,"7364 Reading Rd., Cincinnati, OH"
2012,democrat,Obama,OH,Brunswick,41.2281,-81.839104,"1733 Pearl Rd., Suite 121, Brunswick, OH"
2012,democrat,Obama,OH,Powell,40.157902,-83.071503,"132 E. Olentangy St., Powell, OH"
2012,democrat,Obama,OH,Hillsboro,39.193901,-83.613602,"721 S. High St., Hillsboro, OH"
2012,democrat,Obama,OH,Cleveland,41.4487,-81.5625,"4071 Lee Rd., Suite 110, Cleveland, OH"
2012,democrat,Obama,OH,Mount Vernon,40.3908,-82.485703,"5 W. Ohio Ave., Mount Vernon, OH"
2012,democrat,Obama,OH,Columbus,39.9557,-83.063599,"2364 W. Broad St., Columbus, OH"
2012,democrat,Obama,OH,Upper Arlington,40.056599,-83.0756,"4939 Dierker Rd., Upper Arlington, OH"
2012,democrat,Obama,OH,Lakewood,41.4841,-81.771202,"11822 Detroit Ave., Lakewood, OH"
2012,democrat,Obama,OH,Lancaster,39.725201,-82.6101,"1021 N. Memorial Dr., Suite @, Lancaster, OH"
2012,democrat,Obama,OH,Eastlake,41.642601,-81.434601,"35560 Vine St., Suite 2, Eastlake, OH"
2012,democrat,Obama,OH,Cincinnati,39.220001,-84.585197,"3032 W. Galbraith Rd., Cincinnati, OH"
2012,democrat,Obama,OH,Coshocton,40.210499,-81.722099,"611 Main St., Coshocton, OH"
2012,democrat,Obama,OH,Warren,41.238899,-80.740501,"143 Niles-Cortland Rd. NE, Warren, OH"
2012,democrat,Obama,OH,Barberton,41.012798,-81.6092,"530 W. Tuscarawas Ave., Barberton, OH"
2012,democrat,Obama,OH,Cleveland,41.502899,-81.660004,"3740 Euclid Avenue, Cleveland, OH"
2012,democrat,Obama,OH,Akron,41.0289,-81.512802,"396 Waterloo Rd., Akron, OH"
2012,democrat,Obama,OH,Hudson,41.240101,-81.439697,"1 E. Main St., Hudson, OH"
2012,democrat,Obama,OH,Minerva,40.729401,-81.103699,"213 N. Market St., Minerva, OH"
2012,democrat,Obama,OH,Cleveland,41.516201,-81.596703,"12416 Euclid Ave., Cleveland, OH"
2012,democrat,Obama,OH,Upper Sandusky,40.825802,-83.281303,"130 S. Sandusky Ave., Upper Sandusky, OH"
2012,democrat,Obama,OH,Pickerington,39.915001,-82.779999,"1256 Hill Rd. N, Pickerington, OH"
2012,democrat,Obama,OH,Struthers,41.057201,-80.615799,"520 Youngstown-Poland Rd., Struthers, OH"
2012,democrat,Obama,OH,Columbus,40.015301,-83.002899,"310 E. Hudson St., Columbus, OH"
2012,democrat,Obama,OH,Gallipolis,38.806499,-82.207298,"35 Court St., Gallipolis, OH"
2012,democrat,Obama,OH,Fremont,41.345798,-83.108803,"225 E. State St., Fremont, OH"
2012,democrat,Obama,OH,Ironton,38.528301,-82.667999,"1520 S. 11th St., Ironton, OH"
2012,democrat,Obama,OH,Marysville,40.236198,-83.354103,"893 Delaware Ave., Marysville, OH"
2012,democrat,Obama,OH,Elyria,41.356201,-82.117996,"1573 W. River Rd., Elyria, OH"
2012,democrat,Obama,OH,Massillon,40.7967,-81.522903,"24 Lincoln Way, Massillon, OH"
2012,democrat,Obama,OH,Cleveland Heights,41.5051,-81.554199,"2176 Lee Rd., Down, Cleveland Heights, OH"
2012,democrat,Obama,OH,Maumee,41.5811,-83.676498,"433 W. Dussel Dr., Maumee, OH"
2012,democrat,Obama,OH,Columbus,39.9366,-82.996498,"1247 S. High St., Columbus, OH"
2012,democrat,Obama,OH,Cleveland,41.551899,-81.497704,"468 Richmond Rd., Suite E, Cleveland, OH"
2012,democrat,Obama,OH,Euclid,41.612,-81.523102,"22802 Lake Shore Blvd., Euclid, OH"
2012,democrat,Obama,OH,Mount Gilead,40.549,-82.842499,"400 W. High St., Suite B,C, Mount Gilead, OH"
2012,democrat,Obama,OH,Xenia,39.684502,-83.929497,"30 S. Detroit St., Xenia, OH"
2012,democrat,Obama,OH,Painesville,41.726101,-81.2407,"216 E. Main St., Painesville, OH"
2012,democrat,Obama,OH,Grove City,39.883598,-83.069397,"3965 Hoover Rd., Grove City, OH"
2012,democrat,Obama,OH,Botkins,40.4678,-84.182198,"108 W. State St., Botkins, OH"
2012,democrat,Obama,OH,Perrysburg,41.558399,-83.627098,"118 E. Third St., Suite A, Perrysburg, OH"
2012,democrat,Obama,OH,Circleville,39.602299,-82.946404,"134 W. Main St., Circleville, OH"
2012,democrat,Obama,OH,Celina,40.548199,-84.570999,"125 S. Main St., Celina, OH"
2012,democrat,Obama,OH,London,39.886002,-83.447601,"22 S. Main St., London, OH"
2012,democrat,Obama,OH,Eaton,39.7435,-84.633797,"219 E. Main St., Eaton, OH"
2012,democrat,Obama,OH,Alliance,40.9016,-81.088799,"1160 E. State St., 4A, Alliance, OH"
2012,democrat,Obama,OH,Oberlin,41.2915,-82.217003,"5 S. Main St., Suite 204, Oberlin, OH"
2012,democrat,Obama,OH,Westlake,41.4207,-81.964104,"31025 Center Ridge Rd., Westlake, OH"
2012,democrat,Obama,OH,Bellefontaine,40.330799,-83.761398,"2527 US 68 South, Bellefontaine, OH"
2012,democrat,Obama,OH,Findlay,41.054401,-83.649597,"1041 N. Main St., Findlay, OH"
2012,democrat,Obama,OH,Warren,41.231701,-80.829201,"369 Tod Ave. SW, Warren, OH"
2012,democrat,Obama,OH,Dayton,39.841801,-84.2612,"8144 N. Main St., Dayton, OH"
2012,democrat,Obama,OH,Wadsworth,41.049,-81.733398,"225 Great Oaks Trail, Wadsworth, OH"
2012,democrat,Obama,OH,Cambridge,40.024799,-81.592201,"647 Wheeling Ave., Cambridge, OH"
2012,democrat,Obama,OH,Toledo,41.652599,-83.617897,"3125 Dorr St., Toledo, OH"
2012,democrat,Obama,OH,Berea,41.3722,-81.866302,"374 W. Bagley Rd., Berea, OH"
2012,democrat,Obama,OH,Carrollton,40.572601,-81.085403,"39 E. Main St., Carrollton, OH"
2012,democrat,Obama,OH,Strongsville,41.309502,-81.835197,"14492 Pearl Rd., Strongsville, OH"
2012,democrat,Obama,OH,Wauseon,41.549301,-84.141998,"201 N. Fulton St., Wauseon, OH"
2012,democrat,Obama,OH,Cleveland,41.485699,-81.696602,"2621 Lorain Ave., East Storefront, Cleveland, OH"
2012,democrat,Obama,OH,Cincinnati,39.095299,-84.269096,"775 Eastgate South Dr., Cincinnati, OH"
2012,democrat,Obama,OH,Gahanna,40.018501,-82.875,"181 Granville St., Gahanna, OH"
2012,democrat,Obama,OH,Wellington,41.168098,-82.216904,"107 Willard Memorial Sq., Wellington, OH"
2012,democrat,Obama,OH,Medina,41.1488,-81.863602,"799 N. Court St., #8, Medina, OH"
2012,democrat,Obama,OK,Oklahoma City,35.493599,-97.531998,"2421 N. Classen Boulevard, Oklahoma City, OK"
2012,democrat,Obama,OR,Portland,45.446899,-122.765,"10120 SW Hall Blvd. , Suite 100, Portland, OR"
2012,democrat,Obama,OR,Portland,45.512901,-122.654,"1125 SE Madison, Suite 112, Portland, OR"
2012,democrat,Obama,OR,Salem,44.938499,-123.039,"250 Liberty St. SE, Salem, OR"
2012,democrat,Obama,OR,Eugene,44.053299,-123.095,"115 W 6th Ave., Eugene, OR"
2012,democrat,Obama,OR,Corvallis,44.564098,-123.262,"132 SW 4th St., Corvallis, OR"
2012,democrat,Obama,OR,Oak Grove,45.406898,-122.625,"16031 SE McLoughlin Blvd, Oak Grove, OR"
2012,democrat,Obama,OR,Medford,42.325199,-122.875,"132 W. Main St. Suite 101, Medford, OR"
2012,democrat,Obama,PA,Erie,42.122501,-80.080101,"1305 State St, Erie, PA"
2012,democrat,Obama,PA,Allentown,40.601601,-75.479797,"1031 W Linden St #101, Allentown, PA"
2012,democrat,Obama,PA,West Chester,39.9641,-75.597298,"533 E Gay St, West Chester, PA"
2012,democrat,Obama,PA,Pittsburgh,40.448101,-79.9897,"1400 Smallman St #1, Pittsburgh, PA"
2012,democrat,Obama,PA,State College,40.7924,-77.8582,"315 S Allen St #117, State College, PA"
2012,democrat,Obama,PA,Philadelphia,40.0639,-75.152496,"7171 Ogontz Ave, Philadelphia, PA"
2012,democrat,Obama,PA,Harrisburg,40.260502,-76.880203,"10 S 3rd St, Harrisburg, PA"
2012,democrat,Obama,PA,Elkins Park,40.0788,-75.127197,"8120 Old York Rd #4, Elkins Park, PA"
2012,democrat,Obama,PA,Johnstown,40.3255,-78.9189,"430 Main St Fl 2, Johnstown, PA"
2012,democrat,Obama,PA,Easton,40.690102,-75.205597,"91 Larry Holmes Dr #120, Easton, PA"
2012,democrat,Obama,PA,Scranton,41.409199,-75.664597,"216 Wyoming Avenue, Scranton, PA"
2012,democrat,Obama,PA,Norristown,40.130798,-75.3349,"1729 Markley St, Norristown, PA"
2012,democrat,Obama,PA,Philadelphia,40.029499,-75.180702,"322 W Chelten Ave, Philadelphia, PA"
2012,democrat,Obama,PA,Reading,40.333302,-75.928101,"108 S 5th St Fl 1, Reading, PA"
2012,democrat,Obama,PA,Philadelphia,39.969002,-75.133598,"206 E Girard Ave #C, Philadelphia, PA"
2012,democrat,Obama,PA,Greensburg,40.303699,-79.544502,"101 N Main St, #G-1, Greensburg, PA"
2012,democrat,Obama,PA,Media,39.9174,-75.394096,"340 W Baltimore Ave, Media, PA"
2012,democrat,Obama,PA,Beaver Falls,40.756100000000004,-80.319397,"1502 7th Ave, Beaver Falls, PA"
2012,democrat,Obama,PA,Philadelphia,39.9566,-75.225403,"209 S 52nd St, Philadelphia, PA"
2012,democrat,Obama,PA,York,39.9617,-76.730301,"120 W Market St, York, PA"
2012,democrat,Obama,PA,Pittsburgh,40.428799,-79.987198,"1105 E Carson St, Pittsburgh, PA"
2012,democrat,Obama,PA,Sharon,41.232899,-80.507797,"79 E State St, Sharon, PA"
2012,democrat,Obama,PA,Bethlehem,40.612099,-75.377998,"13 E 3rd St, Bethlehem, PA"
2012,democrat,Obama,PA,Wilkes-Barre,41.247398,-75.879898,"70 S Main St, Wilkes-Barre, PA"
2012,democrat,Obama,PA,Coatesville,39.983501,-75.821198,"238 E Lincoln Hwy, Coatesville, PA"
2012,democrat,Obama,PA,Monroeville,40.436298,-79.780296,"2675 Monroeville Blvd, Monroeville, PA"
2012,democrat,Obama,PA,Chester,39.8475,-75.359497,"403 Avenue of the States Fl 1, Chester, PA"
2012,democrat,Obama,PA,Philadelphia,40.055401,-75.186996,"6841 Germantown Ave, Philadelphia, PA"
2012,democrat,Obama,PA,Bristol,40.0965,-74.859497,"412 Mill St, Bristol, PA"
2012,democrat,Obama,PA,Lancaster,40.036999,-76.310097,"250 W King St, Lancaster, PA"
2012,democrat,Obama,PA,Pittsburgh,40.4627,-79.9244,"200 N Highland Ave Fl 1A, Pittsburgh, PA"
2012,democrat,Obama,PA,Philadelphia,39.966599,-75.232803,"5601 Vine St, Philadelphia, PA"
2012,democrat,Obama,PA,Philadelphia,39.9272,-75.166603,"1825 E Passyunk Ave, Philadelphia, PA"
2012,democrat,Obama,PA,Doylestown,40.308998,-75.129898,"33 S Main St, Doylestown, PA"
2012,democrat,Obama,PA,Philadelphia,40.038101,-75.130096,"5706 N 5th St, Philadelphia, PA"
2012,democrat,Obama,PA,Williamsport,41.375702,-76.802902,"337 Pine St, Williamsport, PA"
2012,democrat,Obama,PA,Camp Hill,40.226601,-76.925903,"3300 Hartzdale Dr #110, Camp Hill, PA"
2012,democrat,Obama,PA,Stroudsburg,40.9842,-75.199203,"912 Main St #102, Stroudsburg, PA"
2012,democrat,Obama,PA,Philadelphia,40.075298,-75.032402,"9173 Roosevelt Blvd, Philadelphia, PA"
2012,democrat,Obama,PA,Pottstown,40.245399,-75.648903,"238 E High St #203, Pottstown, PA"
2012,democrat,Obama,PA,Pittsburgh,40.441502,-79.958199,"115 Atwood St, Pittsburgh, PA"
2012,democrat,Obama,PA,Oil City,41.4193,-79.705803,"4317 Pennsylvania 257, Oil City, PA"
2012,democrat,Obama,PA,Washington,40.168999,-80.247101,"54 W Wheeling St, Washington, PA"
2012,democrat,Obama,PA,Lansdowne,41.0965,-80.616096,"26 N Lansdowne Ave, Lansdowne, PA"
2012,democrat,Obama,PA,Philadelphia,40.016102,-75.083702,"4663 Paul Street, Philadelphia, PA"
2012,democrat,Obama,PA,Mount Lebanon,40.404301,-80.019203,"2895 West Liberty Ave, Mount Lebanon, PA"
2012,democrat,Obama,PA,Philadelphia,39.9445,-75.171501,"1737 South Street, Philadelphia, PA"
2012,democrat,Obama,PA,Hazleton,40.9552,-75.978203,"236 West Broad St, Hazleton, PA"
2012,democrat,Obama,PA,Pottsville,40.685799,-76.195702,"111 W. Market St, Pottsville, PA"
2012,democrat,Obama,PA,Chambersburg,39.930199,-77.639999,"1061 Lincoln Way East, Chambersburg, PA"
2012,democrat,Obama,PA,Lewisburg,40.9636,-76.884399,"29 South 3rd Street, Lewisburg, PA"
2012,democrat,Obama,PA,Pittsburgh,40.437199,-79.923103,"1722 Murray Ave, Pittsburgh, PA"
2012,democrat,Obama,PA,Hanover,39.798901,-76.985001,"118 Frederick St, Hanover, PA"
2012,democrat,Obama,PA,Kennett Square,39.839699,-75.710098,"612 S Union Street, Kennett Square, PA"
2012,democrat,Obama,RI,Providence,41.821602,-71.422302,"151 Broadway, Suite 310, Providence, RI"
2012,democrat,Obama,SC,Columbia,34.0005,-81.041603,"717 Lady St., Suite A, Columbia, SC"
2012,democrat,Obama,SC,Charleston,32.8036,-80.0187,"1836 Ashley River Rd. , Suite L, Charleston, SC"
2012,democrat,Obama,SC,Rock Hill,34.945999,-81.0354,"1176 Ebenezer Road, Rock Hill, SC"
2012,democrat,Obama,SD,Sioux Falls,43.5294,-96.6717,"4531 E 26th St, Sioux Falls, SD"
2012,democrat,Obama,TN,Chattanooga,35.036999,-85.310699,"306 West Main Street, Suite 108, Chattanooga, TN"
2012,democrat,Obama,TX,Dallas,32.784901,-96.764397,"4209 Parry Ave, Dallas, TX"
2012,democrat,Obama,TX,Houston,29.73,-95.376503,"4400 Almeda Ave., Houston, TX"
2012,democrat,Obama,TX,El Paso,31.778,-106.469,"2226 Montana Ave, El Paso, TX"
2012,democrat,Obama,TX,Austin,30.284901,-97.716904,"2406 Manor Rd, Austin, TX"
2012,democrat,Obama,UT,Salt Lake City,40.764,-111.896,"175 West 200 South Suite 1003, Salt Lake City, UT"
2012,democrat,Obama,VA,Fairfax,38.851398,-77.334503,"11215 Lee Highway, Fairfax, VA"
2012,democrat,Obama,VA,Richmond,37.5452,-77.447899,"408 E. Main Street, Richmond, VA"
2012,democrat,Obama,VA,Petersburg,37.218601,-77.399902,"612 S. Sycamore Street, Petersburg, VA"
2012,democrat,Obama,VA,Newport News,37.0793,-76.478996,"11717 Jefferson Avenue, Newport News, VA"
2012,democrat,Obama,VA,Fredericksburg,38.301399,-77.514297,"1281 Central Park Blvd, Fredericksburg, VA"
2012,democrat,Obama,VA,Danville,36.6241,-79.403603,"1107 Piney Forest Road, Danville, VA"
2012,democrat,Obama,VA,Charlottesville,38.029999,-78.478996,"407 E Main St., Charlottesville, VA"
2012,democrat,Obama,VA,Leesburg,39.106602,-77.5541,"56 Sycolin, Leesburg, VA"
2012,democrat,Obama,VA,Woodbridge,38.678001,-77.280701,"2243-C Old Bridge Road, Woodbridge, VA"
2012,democrat,Obama,VA,Virginia Beach,36.827499,-76.133102,"485 S. Independence Blvd. , Suite 107 and Suite 108, Virginia Beach, VA"
2012,democrat,Obama,VA,Suffolk,36.7285,-76.583,"114 North Main Street, Suite 102, Suffolk, VA"
2012,democrat,Obama,VA,Falls Church,38.865898,-77.197601,"7285 Arlington Blvd., Falls Church, VA"
2012,democrat,Obama,VA,Arlington,38.863499,-77.084297,"2408 Columbia Pike, Arlington, VA"
2012,democrat,Obama,VA,Richmond,37.628399,-77.544701,"2720 Enterprise Pkwy, Suites 103 and 105, Richmond, VA"
2012,democrat,Obama,VA,Alexandria,38.803398,-77.055603,"1400 Duke St, Alexandria, VA"
2012,democrat,Obama,VA,Norfolk,36.866699,-76.2855,"100 West 20th Street, Norfolk, VA"
2012,democrat,Obama,VA,Blacksburg,37.2356,-80.420502,"712 N. Main St., Suite 102, Blacksburg, VA"
2012,democrat,Obama,VA,Martinsville,36.691502,-79.872498,"33 East Main St.  Suites A&B, Martinsville, VA"
2012,democrat,Obama,VA,Harrisonburg,38.449402,-78.868599,"2 North Main Street, Harrisonburg, VA"
2012,democrat,Obama,VA,Portsmouth,36.834599,-76.313499,"1215 High Street, Portsmouth, VA"
2012,democrat,Obama,VA,Charlottesville,38.0723,-78.488503,"335 Greenbrier Dr, Charlottesville, VA"
2012,democrat,Obama,VA,Williamsburg,37.273399,-76.687897,"201 Penniman Road, Williamsburg, VA"
2012,democrat,Obama,VA,Culpeper,38.473202,-77.996696,"102 North Main Street, Suites 300/301, Culpeper, VA"
2012,democrat,Obama,VA,Hampton,37.0247,-76.332001,"1026 Settlers Landing E, Hampton, VA"
2012,democrat,Obama,VA,South Boston,36.7327,-78.918297,"3166 Halifax Rd., South Boston, VA"
2012,democrat,Obama,VA,Emporia,36.685299,-77.543198,"425 H South Main Street, Emporia, VA"
2012,democrat,Obama,VA,Fluvanna,37.904499,-78.341599,"265 Turkeysag Trail, #110, Fluvanna, VA"
2012,democrat,Obama,VA,Reston,38.962898,-77.354897,"1760 Reston Parkway, Suite 200, Reston, VA"
2012,democrat,Obama,VA,Chesapeake,36.752998,-76.246902,"927 North Battlefield Blvd., Chesapeake, VA"
2012,democrat,Obama,VA,Lynchburg,37.3988,-79.209297,"2225 Lakeside Drive, Unit C-1, Lynchburg, VA"
2012,democrat,Obama,VA,Sterling,39.0256,-77.393997,"46396 Benedict Drive  Suite 200, Sterling, VA"
2012,democrat,Obama,VA,Manassas,38.7509,-77.475304,"9411 Main Street, Suites 101 & 102, Manassas, VA"
2012,democrat,Obama,VA,Burke,38.775101,-77.2659,"9253 Old Keene Mill Rd, Burke, VA"
2012,democrat,Obama,VA,Winchester,39.184502,-78.167503,"106 West Boscawen, Winchester, VA"
2012,democrat,Obama,VA,Alexandria,38.723999,-77.1082,"8796 (G&H) Sacramento Drive, Alexandria, VA"
2012,democrat,Obama,VA,Roanoke,37.2729,-79.942802,"109 Norfolk Ave, Roanoke, VA"
2012,democrat,Obama,VA,Centreville,38.837898,-77.440002,"14260-P Centreville Square, Centreville, VA"
2012,democrat,Obama,VA,Waverly,37.035801,-77.095802,"336 West Main Street, Waverly, VA"
2012,democrat,Obama,VA,Staunton,38.1497,-79.073196,"15 E Beverely Street, Staunton, VA"
2012,democrat,Obama,VA,Charlottesville,38.034,-78.498802,"1325 W Main St A, Charlottesville, VA"
2012,democrat,Obama,VA,Newport News,36.989201,-76.407204,"2712 Chestnut Ave., Newport News, VA"
2012,democrat,Obama,VA,Tappahannock,37.914101,-76.8601,"1388 D Tappahannock Blvd, Tappahannock, VA"
2012,democrat,Obama,VA,Stafford,38.444599,-77.398903,"20 PGA Drive , Suite 101, Stafford, VA"
2012,democrat,Obama,VA,Radford,37.1362,-80.542999,"513 East Main St, Radford, VA"
2012,democrat,Obama,VA,Madison Heights,37.4636,-79.118698,"4133 South Amherst Highway, Madison Heights, VA"
2012,democrat,Obama,VA,Fredericksburg,38.246899,-77.5131,"10705 Courthouse Rd, Fredericksburg, VA"
2012,democrat,Obama,VA,Richmond,37.502102,-77.473503,"617 East Belt Boulevard, Richmond, VA"
2012,democrat,Obama,VA,Richmond,37.543499,-77.370201,"4719 Nine Mile Road, Richmond, VA"
2012,democrat,Obama,VA,Arlington,38.880402,-77.1138,"4401 Wilson Blvd, Suite 10, Arlington, VA"
2012,democrat,Obama,VA,Chester,37.310101,-77.4086,"15714 Jefferson Davis Highway, Chester, VA"
2012,democrat,Obama,VA,Ashland,37.7551,-77.468102,"147 Junction Dr., Ashland, VA"
2012,democrat,Obama,VA,South Hill,36.727299,-78.128601,"125 North Mecklenburg Ave., South Hill, VA"
2012,democrat,Obama,VA,Bristol,36.602798,-82.192101,"601 Commonweatlh Ave, Suite 2, Bristol, VA"
2012,democrat,Obama,VA,Madison Heights,37.4636,-79.118698,"4133 South Amherst Highway, Madison Heights, VA"
2012,democrat,Obama,VA,Midlothian,37.500301,-77.608902,"713 North Courthouse Road, Midlothian, VA"
2012,democrat,Obama,VA,South Hill,36.727299,-78.128601,"125 North Mecklenburg Ave., South Hill, VA"
2012,democrat,Obama,VA,McLean,38.939701,-77.174797,"1312C Chain Bridge Road, McLean, VA"
2012,democrat,Obama,VA,Farmville,37.303101,-78.391899,"236 North Main Street, Farmville, VA"
2012,democrat,Obama,VA,Charles City,37.3867,-77.104301,"7501-B Adkins Road, Charles City, VA"
2012,democrat,Obama,VA,Dumfries,38.562302,-77.327904,"17997 Dumfries Shopping Plaza, Dumfries, VA"
2012,democrat,Obama,VA,Vienna,38.911201,-77.227501,"1952 Gallows Road, Suite 210, Vienna, VA"
2012,democrat,Obama,VT,Burlington,44.476898,-73.216904,"77 College St, (Second Floor), Burlington, VT"
2012,democrat,Obama,WA,Seattle,47.594101,-122.31,"901 Rainier Ave. S., Seattle, WA"
2012,democrat,Obama,WA,Everett,47.987999,-122.202,"2212 Broadway, Everett, WA"
2012,democrat,Obama,WA,Tacoma,47.255199,-122.497,"4412 6th Ave, Tacoma, WA"
2012,democrat,Obama,WA,Spokane,47.659,-117.415,"239 W Main, Ste A, Spokane, WA"
2012,democrat,Obama,WA,Yakima,46.601601,-120.506,"16 South First St, Yakima, WA"
2012,democrat,Obama,WA,Silverdale,47.6548,-122.687,"2819 NW Kitsap Pl, Suite 160, Silverdale, WA"
2012,democrat,Obama,WA,Olympia,47.044601,-122.907,"423 4th Ave, Olympia, WA"
2012,democrat,Obama,WA,Vancouver,45.644299,-122.599,"3021 NE 72nd Ave, Suite 35, Vancouver, WA"
2012,democrat,Obama,WA,Bellevue,47.621899,-122.163,"13333 Bel-Red Rd, Suite 101, Bellevue, WA"
2012,democrat,Obama,WA,Bellingham,48.747398,-122.479,"1155 N State St, Unit 510, Bellingham, WA"
2012,democrat,Obama,WI,Madison,43.074902,-89.378403,"302 East Wilson Street, Madison, WI"
2012,democrat,Obama,WI,Milwaukee,43.059101,-87.9142,"2201 North Martin Luther King Drive, Milwaukee, WI"
2012,democrat,Obama,WI,Milwaukee,43.038601,-87.907997,"231 East Wisconsin Avenue, Milwaukee, WI"
2012,democrat,Obama,WI,Milwaukee,43.177898,-88.016502,"8550 West Brown Deer Road, Milwaukee, WI"
2012,democrat,Obama,WI,Racine,42.726601,-87.787598,"606 6th Street, Racine, WI"
2012,democrat,Obama,WI,La Crosse,43.811401,-91.250603,"116 5th Avenue South, La Crosse, WI"
2012,democrat,Obama,WI,Milwaukee,43.0616,-87.883301,"2403 North Maryland Ave, Suite A, Milwaukee, WI"
2012,democrat,Obama,WI,Kenosha,42.571602,-87.846199,"3020 Roosevelt Road, Kenosha, WI"
2012,democrat,Obama,WI,Eau Claire,44.810001,-91.498299,"405 South Barstow Road, Eau Claire, WI"
2012,democrat,Obama,WI,Appleton,44.2621,-88.412399,"506  West College Avenue, Appleton, WI"
2012,democrat,Obama,WI,Madison,43.0966,-89.358803,"222 State Street, Third Floor, Madison, WI"
2012,democrat,Obama,WI,Madison,43.043701,-89.360802,"2801 West Beltline Highway, Madison, WI"
2012,democrat,Obama,WI,Madison,43.080799,-89.523102,"1001 Fourier Drive #201, Madison, WI"
2012,democrat,Obama,WI,Cedarburg,43.298401,-87.988197,"W62 N281 Washington Avenue, Cedarburg, WI"
2012,democrat,Obama,WI,Green Bay,44.516499,-88.023102,"118 South Chestnut Avenue, Green Bay, WI"
2012,democrat,Obama,WI,Milwaukee,42.982399,-87.979698,"5160 West Forest Home Avenue, Milwaukee, WI"
2012,democrat,Obama,WI,Milwaukee,43.025002,-87.916702,"610 South 5th Street, Milwaukee, WI"
2012,democrat,Obama,WI,Milwaukee,44.088799,-87.664001,"1207 Washington Street, Milwaukee, WI"
2012,democrat,Obama,WI,Beloit,42.4991,-89.035698,"314 State Street, Beloit, WI"
2012,democrat,Obama,WI,Fond Du Lac,43.779598,-88.445602,"21 North Portland Street, Fond Du Lac, WI"
2012,democrat,Obama,WI,Oshkosh,44.029099,-88.498497,"480 North Main Street, Oshkosh, WI"
2012,democrat,Obama,WI,Platteville,42.745701,-90.487999,"150 McGregor Plaza, Platteville, WI"
2012,democrat,Obama,WI,Hudson,44.979198,-92.753998,"901 4th Street #125, Hudson, WI"
2012,democrat,Obama,WI,Sheboygan,43.756699,-87.713699,"816 Erie Avenue, Sheboygan, WI"
2012,democrat,Obama,WI,Janesville,42.6819,-89.0252,"111 West Milwaukee Street, Janesville, WI"
2012,democrat,Obama,WI,Ashland,46.59,-90.886497,"316 West Main Street, Ashland, WI"
2012,democrat,Obama,WI,Wausau,44.960701,-89.628502,"217 Scott Street, Wausau, WI"
2012,democrat,Obama,WI,Stevens Point,44.514999,-89.575104,"2220 South Division Street, Stevens Point, WI"
2012,democrat,Obama,WI,Portage,43.538898,-89.460602,"216 W Wisconsin, Portage, WI"
2012,democrat,Obama,WI,Viroqua,43.556198,-90.889397,"210 S Main Street, Viroqua, WI"
2012,democrat,Obama,WI,Richland Center,43.3428,-90.386497,"900 N Main Street, Richland Center, WI"
2012,democrat,Obama,WI,Dodgeville,42.956501,-90.130798,"414 S Iowa Street, Dodgeville, WI"
2012,democrat,Obama,WI,Milwaukee,43.108898,-88.002098,"7984 W Appleton Ave, Milwaukee, WI"
2012,democrat,Obama,WI,River Falls,44.847198,-92.630096,"1025 South Main St, # 450, River Falls, WI"
2012,democrat,Obama,WI,Menomonie,44.881901,-91.904099,"334 21st Avenue W., Menomonie, WI"
2012,democrat,Obama,WI,Chippewa Falls,44.935799,-91.391602,"103 North Bridge St, # 310, Chippewa Falls, WI"
2012,democrat,Obama,WI,Sturgeon Bay,44.833801,-87.375397,"62 South 3rd Ave, Sturgeon Bay, WI"
2012,democrat,Obama,WI,Elkhorn,42.6716,-88.542297,"10 S Washington Street, Elkhorn, WI"
2012,democrat,Obama,WI,Kenosha,42.5854,-87.818703,"5535 6th Ave, Kenosha, WI"
2012,democrat,Obama,WI,Rice Lake,45.502998,-91.733299,"113 N Main Street, Rice Lake, WI"
2012,democrat,Obama,WI,Rhinelander,45.637798,-89.412003,"29 W Davenport Street, Rhinelander, WI"
2012,democrat,Obama,WI,Shawano,44.7822,-88.736298,"713 E Green Bay, Shawano, WI"
2012,democrat,Obama,WI,Marshfield,44.665401,-90.174698,"225 S. Central Avenue, Marshfield, WI"
2012,democrat,Obama,WI,Beaver Dam,43.455101,-88.819702,"116 Monroe Street, Beaver Dam, WI"
2012,democrat,Obama,WI,Columbus,43.337002,-89.0121,"315 E James Street, Columbus, WI"
2012,democrat,Obama,WI,Superior,46.720699,-92.104897,"1810 Belknap Street, Superior, WI"
2012,democrat,Obama,WI,Milwaukee,43.0606,-87.969398,"4417 West North Ave, Milwaukee, WI"
2012,democrat,Obama,WI,Sun Prairie,43.178299,-89.241096,"1632 West Main Street, Sun Prairie, WI"
2012,democrat,Obama,WI,Stoughton,42.917,-89.222099,"220 West Main Street, Stoughton, WI"
2012,democrat,Obama,WI,Cudahy,42.940899,-87.859398,"5656 S Packard Ave, Unit 10, Cudahy, WI"
2012,democrat,Obama,WI,Ripon,43.844501,-88.838501,"227 Watson St, Ripon, WI"
2012,democrat,Obama,WI,Waukesha,43.015099,-88.197403,"741 Grand Street, Suites 100 and 102, Waukesha, WI"
2012,democrat,Obama,WI,Brookfield,43.076099,-88.067398,"3165 North 124th Street, Brookfield, WI"
2012,democrat,Obama,WI,Green,42.6007,-89.640198,"1113 16th Ave., Green, WI"
2012,democrat,Obama,WI,Monroe,45.090698,-87.6492,"1515 Marinette Avenue, Monroe, WI"
2012,democrat,Obama,WI,Jefferson,43.003399,-88.811501,"320 Wisconsin Drive, Jefferson, WI"
2012,democrat,Obama,WI,Amery,45.311901,-92.362099,"110 Keller Ave N, Amery, WI"
2012,democrat,Obama,WI,Baraboo,43.5215,-89.826897,"13119 State Road 33, Baraboo, WI"
2012,democrat,Obama,WI,Burlington,42.676498,-88.274498,"101 S Pine Street, Burlington, WI"
2012,democrat,Obama,WI,Eagle River,45.9226,-89.2556,"602 Michigan Sreet, Eagle River, WI"
2012,democrat,Obama,WI,Glendale,43.163101,-87.950798,"6807 N. Green Bay Road, Glendale, WI"
2012,democrat,Obama,WI,Monroe,42.6007,-89.640198,"1113 16th Avenue, Monroe, WI"
2012,democrat,Obama,WI,Merrill,45.187901,-89.691002,"908 Cleveland Street, Merrill, WI"
2012,democrat,Obama,WI,Minocqua,45.889801,-89.702003,"8683 Highway 51, Minocqua, WI"
2012,democrat,Obama,WI,Reedsburg,43.5326,-90.024002,"648 W. Main Street, Reedsburg, WI"
2012,democrat,Obama,WI,West Bend,43.423801,-88.182701,"132 N Main Street, West Bend, WI"
2012,democrat,Obama,WI,Whitewater,42.834,-88.7285,"177 Main Street, Whitewater, WI"
2012,democrat,Obama,WI,Madison,43.0718,-89.393097,"210 N. Bassett St. # 110, Madison, WI"
2012,democrat,Obama,WI,Shawano,44.782101,-88.600403,"713 E Green Bay, Shawano, WI"
2012,democrat,Obama,WV,Morgantown,39.624802,-79.960297,"122 South High St. Suite B, Morgantown, WV"
2012,democrat,Obama,WY,Laramie,41.3111,-105.594,"211 Grand Ave., Laramie, WY"
2012,republican,Romney,CO,Lakewood,39.738899,-105.155,"13949 W. Colfax Ave.,, Lakewood, CO"
2012,republican,Romney,CO,Thornton,39.884499,-104.96,"2200 E. 104th Ave., Thornton, CO"
2012,republican,Romney,CO,Greenwood Village,39.608501,-104.889,"5950 S. Willow Dr., Greenwood Village, CO"
2012,republican,Romney,CO,Aurora,39.7234,-104.82,"479 N. Sable Blvd., Aurora, CO"
2012,republican,Romney,CO,Longmont,40.152401,-105.104,"619 Ken Pratt Blvd, Longmont, CO"
2012,republican,Romney,CO,Colorado Springs,38.8078,-104.727,"1545 Vapor Trail, Colorado Springs, CO"
2012,republican,Romney,CO,Denver,39.718201,-104.947,"110 Cook Street, Denver, CO"
2012,republican,Romney,CO,Castle Rock,39.374001,-104.86,"413 Wilcox St., Castle Rock, CO"
2012,republican,Romney,CO,Colorado Springs,38.8895,-104.832,"205 Sutton Ln, Colorado Springs, CO"
2012,republican,Romney,CO,Fort Collins,40.5779,-105.076,"700 South College Avenue, Fort Collins, CO"
2012,republican,Romney,CO,Littleton,39.5797,-105.099,"9032 West Ken Caryl Ave, Littleton, CO"
2012,republican,Romney,CO,Grand Junction,39.078602,-108.57,"1114 N First Street, Grand Junction, CO"
2012,republican,Romney,CO,Pueblo,38.264999,-104.629,"108 Lincoln St., Pueblo, CO"
2012,republican,Romney,CO,Greeley,40.424198,-104.691,"809 9th St, Greeley, CO"
2012,republican,Romney,FL,Tampa,27.9375,-82.452904,"302 Knights Run Avenue, Tampa, FL"
2012,republican,Romney,FL,Gainesville,29.6686,-82.429703,"1722 NW 80th Blvd., Gainesville, FL"
2012,republican,Romney,FL,Panama City,30.1954,-85.664597,"1607 Lisenby Ave, Suite A, Panama City, FL"
2012,republican,Romney,FL,Melbourne,28.222401,-80.676399,"6769 N. Wickham Road, Suite B101, Melbourne, FL"
2012,republican,Romney,FL,Coral Springs,26.272499,-80.262299,"10200 West Sample Road, Coral Springs, FL"
2012,republican,Romney,FL,Fort Lauderdale,26.1679,-80.108002,"2817 E. Oakland Park Blvd., Fort Lauderdale, FL"
2012,republican,Romney,FL,Pompano Beach,26.2288,-80.158203,"150 S Andrews Ave, Suite 370, Pompano Beach, FL"
2012,republican,Romney,FL,Englewood,26.942301,-82.349998,"1160 South McCall Road, Englewood, FL"
2012,republican,Romney,FL,Orange Park,30.160999,-81.729202,"155 Blanding Blvd, Suite 5, Orange Park, FL"
2012,republican,Romney,FL,Naples,26.142,-81.7948,"2500 N Tamiami Trail, #107, Naples, FL"
2012,republican,Romney,FL,Jacksonville,30.2973,-81.615601,"4963 Beach Blvd., Jacksonville, FL"
2012,republican,Romney,FL,Jacksonville,30.1924,-81.625801,"10210 San Jose Blvd, Jacksonville, FL"
2012,republican,Romney,FL,Neptune Beach,30.324301,-81.4151,"1517 Atlantic Blvd, Neptune Beach, FL"
2012,republican,Romney,FL,Pensacola,30.448,-87.207298,"4455 Bayou Bvld Suite C, Pensacola, FL"
2012,republican,Romney,FL,Spring Hill,28.4848,-82.547302,"2939 Landover Blvd, Spring Hill, FL"
2012,republican,Romney,FL,Brandon,27.9112,-82.2948,"1602 Oakfield Drive, Suite 207, Brandon, FL"
2012,republican,Romney,FL,Tampa,27.891199,-82.505798,"4465 Gandy Blvd., Tampa, FL"
2012,republican,Romney,FL,Temple Terrace,28.0329,-82.389702,"234 Bullard Pkwy, Temple Terrace, FL"
2012,republican,Romney,FL,Fort Myers,26.486401,-81.841103,"17595 S. Tamiami Trail, Suite 203, Fort Myers, FL"
2012,republican,Romney,FL,Tallahassee,30.431299,-84.268997,"420 East Jefferson Street, Tallahassee, FL"
2012,republican,Romney,FL,Bradenton,27.4856,-82.582901,"2601 Manatee Ave. West, Ste D, Bradenton, FL"
2012,republican,Romney,FL,Ocala,29.161301,-82.166496,"2611 SW 19th Avenue Road, Suite 200, Ocala, FL"
2012,republican,Romney,FL,Stuart,27.1884,-80.2472,"1111 SE US Hwy 1, Suite 134, Stuart, FL"
2012,republican,Romney,FL,Hialeah,25.856199,-80.306602,"3800 W 12th Ave, Suite 1, Hialeah, FL"
2012,republican,Romney,FL,Miami,25.714199,-80.412903,"5600 SW 135th Avenue, Suite 207, Miami, FL"
2012,republican,Romney,FL,Miami,25.6285,-80.339401,"8950 SW 152nd St, Miami, FL"
2012,republican,Romney,FL,Miami,25.7619,-80.333702,"8532 SW 8th Street, Suite 280, Miami, FL"
2012,republican,Romney,FL,Fort Walton Beach,30.447201,-86.621101,"8 Racetrack Road NW, Fort Walton Beach, FL"
2012,republican,Romney,FL,Apopka,28.673,-81.465202,"2469 State Road 436, Apopka, FL"
2012,republican,Romney,FL,Orlando,28.455299,-81.491302,"7450 Dr. Phillips Blvd, Suite 204, Orlando, FL"
2012,republican,Romney,FL,Winter Park,28.604,-81.365303,"501 N Orlando Avenue, Suite 239, Winter Park, FL"
2012,republican,Romney,FL,Orlando,28.5408,-81.310501,"234 South Semoran Blvd., Orlando, FL"
2012,republican,Romney,FL,Kissimmee,28.2917,-81.4123,"804 W Emmett Street, Kissimmee, FL"
2012,republican,Romney,FL,Palm Beach,26.367399,-80.077797,"1962 NE 5th Avenue, Palm Beach, FL"
2012,republican,Romney,FL,Palm Beach,26.725201,-80.079002,"1555 Palm Beach Lakes, Suite 210, Palm Beach, FL"
2012,republican,Romney,FL,New Port Richey,28.2318,-82.729599,"4768 US Highway 19, New Port Richey, FL"
2012,republican,Romney,FL,Wesley Chapel,28.186399,-82.358299,"27709 State Road 56, Unit #103, Wesley Chapel, FL"
2012,republican,Romney,FL,Clearwater,27.8999,-82.697304,"4707 140th Avenue North, Suite 210, Clearwater, FL"
2012,republican,Romney,FL,Oldsmar,28.0509,-82.699303,"3150 Tampa Road, Suite 16, Oldsmar, FL"
2012,republican,Romney,FL,St. Petersburg,27.7904,-82.725502,"2101 Tyrone Blvd N, St. Petersburg, FL"
2012,republican,Romney,FL,Lakeland,27.9655,-81.922096,"4277 South Florida Ave, Lakeland, FL"
2012,republican,Romney,FL,Navarre,30.4007,-86.8853,"1814 Alpine Avenue, Navarre, FL"
2012,republican,Romney,FL,Osprey,27.178801,-82.4832,"1260 S Tamiami Trail, Osprey, FL"
2012,republican,Romney,FL,Sarasota,27.3379,-82.457397,"5436 Fruitville Road, Sarasota, FL"
2012,republican,Romney,FL,Casselberry,28.658501,-81.337502,"218 State Road 436, Casselberry, FL"
2012,republican,Romney,FL,St. Augustine,29.8713,-81.294601,"525 State Road 16, Suite 104, St. Augustine, FL"
2012,republican,Romney,FL,Port St. Lucie,27.2917,-80.296898,"6835 S. US Highway 1, Port St. Lucie, FL"
2012,republican,Romney,FL,Holly Hill,29.222799,-81.048798,"921 N. Nova Road, Holly Hill, FL"
2012,republican,Romney,IA,Urbandale,41.630501,-93.723801,"2775 86th Street, Urbandale, IA"
2012,republican,Romney,IA,Ames,42.029301,-93.609703,"711 East Lincoln Way, Ames, IA"
2012,republican,Romney,IA,Burlington,40.814201,-91.119102,"3125 Agency Street, Burlington, IA"
2012,republican,Romney,IA,Cedar Falls,42.275002,-92.397202,"4807 University Ave, Suite 103, Cedar Falls, IA"
2012,republican,Romney,IA,Cedar Rapids,42.021,-91.652298,"155 Collins Road, Cedar Rapids, IA"
2012,republican,Romney,IA,Council Bluffs,41.254398,-95.790604,"219 South Main Street, ,, Council Bluffs, IA"
2012,republican,Romney,IA,Davenport,41.5746,-90.602997,"311 West Kimberly Road, Davenport, IA"
2012,republican,Romney,IA,Dubuque,42.460602,-90.685799,"2600 Dodge Street, Dubuque, IA"
2012,republican,Romney,IA,Coralville,41.688202,-91.5868,"89 2nd Street, Coralville, IA"
2012,republican,Romney,IA,Mason City,43.153999,-93.200401,"1314 4th Street, Mason City, IA"
2012,republican,Romney,NE,Omaha,41.235199,-96.115097,"2819 S. 125th St., Suite 362,, Omaha, NE"
2012,republican,Romney,IA,Sioux Center,43.0751,-96.190399,"325 North Maine Ave., Sioux Center, IA"
2012,republican,Romney,IA,Sioux City,42.466301,-96.352898,"4133 Gordon Drive, Sioux City, IA"
2012,republican,Romney,IA,Waukee,41.601501,-93.861504,"43 NE Carefree Ln, Waukee, IA"
2012,republican,Romney,MI,Lansing,42.734699,-84.553497,"120 N. Washington Square Suite 600, Lansing, MI"
2012,republican,Romney,MI,St. Joseph,42.102501,-86.485703,"1109 Main St, St. Joseph, MI"
2012,republican,Romney,MI,Battle Creek,42.298401,-85.218903,"S 20th St Suite 90B, Battle Creek, MI"
2012,republican,Romney,MI,Grand Blanc,42.917702,-83.616798,"12741 S. Saginaw, Grand Blanc, MI"
2012,republican,Romney,MI,Traverse City,44.758701,-85.594704,"1107 E. 8th ST. Ste B, Traverse City, MI"
2012,republican,Romney,MI,Lansing,42.7393,-84.555397,"520 Seymour Ave, Lansing, MI"
2012,republican,Romney,MI,Jackson,42.243999,-84.409103,"414 S. Jackson St., Jackson, MI"
2012,republican,Romney,MI,Portage,42.2057,-85.589401,"7632 S. Westnedge Ave., Portage, MI"
2012,republican,Romney,MI,Grand Rapids,42.966499,-85.685898,"725 Lake Michigan Dr NW, Grand Rapids, MI"
2012,republican,Romney,MI,Howell,42.597301,-83.903,"2554 E. Grand River Ave., Howell, MI"
2012,republican,Romney,MI,Utica,42.627399,-82.995003,"13285 Hall Road Suite C125, Utica, MI"
2012,republican,Romney,MI,Marquette,46.549801,-87.4478,"2164 US41 West, Marquette, MI"
2012,republican,Romney,MI,Midland,43.626701,-84.226303,"109 E. Ashman St., Midland, MI"
2012,republican,Romney,MI,Monroe,41.9161,-83.397797,"40 S. Monroe St., Monroe, MI"
2012,republican,Romney,MI,Bloomfield Hills,42.6007,-83.262199,"42611 Woodward Ave, Bloomfield Hills, MI"
2012,republican,Romney,MI,Commerce Township,42.591202,-83.482201,"170 W. Commerce Rd., Commerce Township, MI"
2012,republican,Romney,MI,Lake Orion,42.766201,-83.306396,"3048 W. Clarkston Rd., Lake Orion, MI"
2012,republican,Romney,MI,Royal Oak,42.514801,-83.184402,"30701 Woodward Ave., Royal Oak, MI"
2012,republican,Romney,MI,Holland,42.7906,-86.084503,"513 E 8th St. #21, Holland, MI"
2012,republican,Romney,MI,Saginaw,43.4524,-83.976799,"3071 Bay Rd., Saginaw, MI"
2012,republican,Romney,MI,Ann Arbor,42.2514,-83.667603,"4695 Washtenaw Ave, Ann Arbor, MI"
2012,republican,Romney,MI,Livonia,42.369099,-83.334999,"29635 Plymouth Rd, Livonia, MI"
2012,republican,Romney,MI,Dearborn,42.303398,-83.2556,"22707 Michigan Ave., Dearborn, MI"
2012,republican,Romney,MI,Riverview,42.168701,-83.189201,"19220 Fort St, Riverview, MI"
2012,republican,Romney,MO,Fenton,38.5369,-90.497299,"932A Meremac Station Rd., Fenton, MO"
2012,republican,Romney,MO,St. Peters,38.778599,-90.620499,"4080 Mexico Road, St. Peters, MO"
2012,republican,Romney,MO,Cape Girardeau,37.3256,-89.565903,"616 Broadway Street, Cape Girardeau, MO"
2012,republican,Romney,MO,Joplin,37.047199,-94.5112,"2727 E. 32nd Street, Suite A, Joplin, MO"
2012,republican,Romney,MO,Lee's Summit,38.913898,-94.363998,"611 3rd Street, Lee's Summit, MO"
2012,republican,Romney,MO,Liberty,39.246201,-94.417603,"249 W.  Mill St. Suite 107, Liberty, MO"
2012,republican,Romney,MO,Jefferson City,38.568298,-92.253304,"2117 Missouri Boulevard, Jefferson City, MO"
2012,republican,Romney,MO,Springfield,37.1684,-93.313004,"300 E. Sunshine Street, Springfield, MO"
2012,republican,Romney,NV,Las Vegas,36.101101,-115.302,"9640 W. Tropicana Avenue, Suite #106, Las Vegas, NV"
2012,republican,Romney,NV,Carson City,39.148701,-119.766,"2049 California Street, Suite #2, Carson City, NV"
2012,republican,Romney,NV,Elko,40.8479,-115.748,"2140 Idaho Street, Elko, NV"
2012,republican,Romney,NV,Fernley,39.608002,-119.249,"140 E. Main Street, Suite C, Fernley, NV"
2012,republican,Romney,NV,Henderson,36.045799,-115.078,"157 N. Gibson Road, Suite #110, Henderson, NV"
2012,republican,Romney,NV,Henderson,36.027302,-115.102,"8915 S. Pecos Road, #17A, Henderson, NV"
2012,republican,Romney,NV,Las Vegas,36.287102,-115.288,"6955 N. Durango Drive, Suite #1112, Las Vegas, NV"
2012,republican,Romney,NV,Las Vegas,36.1702,-115.128,"235 N. Eastern Avenue, Suite #112, Las Vegas, NV"
2012,republican,Romney,NV,Mesquite,36.804501,-114.074,"355 W. Mesquite Boulevard, Suite C80, Mesquite, NV"
2012,republican,Romney,NV,Pahrump,36.2183,-116.01,"3370 South Highway 160, Suite #7, Pahrump, NV"
2012,republican,Romney,NV,Reno,39.4902,-119.793,"3702 S. Virginia Street, Suite G1, Reno, NV"
2012,republican,Romney,NV,Reno,39.5275,-119.886,"6300 Mae Anne Ave, Suite #6, Reno, NV"
2012,republican,Romney,NH,Bedford,42.937801,-71.466003,"273 South River Road, Bedford, NH"
2012,republican,Romney,NH,Derry,42.880299,-71.327499,"15 West Broadway, Suite 2, Derry, NH"
2012,republican,Romney,NH,Dover,43.194901,-70.875702,"104 Washington Street, Dover, NH"
2012,republican,Romney,NH,Keene,42.932499,-72.275803,"51 Railroad Street, Suite 140, Keene, NH"
2012,republican,Romney,NH,Littleton,44.306801,-71.7733,"87 Main Street, Suite B, Littleton, NH"
2012,republican,Romney,NH,Manchester,43.005699,-71.465401,"1850 Elm Street, Manchester, NH"
2012,republican,Romney,NH,Nashua,42.787899,-71.513397,"427 Amherst Street, Nashua, NH"
2012,republican,Romney,NH,Stratham,43.009602,-70.918503,"72 Portsmouth Avenue, Unit 101, Stratham, NH"
2012,republican,Romney,NH,Wolfeboro,43.590698,-71.2052,"98 Center Street, Wolfeboro, NH"
2012,republican,Romney,NM,Albuquerque,35.134102,-106.641,"2420 Comanche Road NE, Suite H-1, Albuquerque, NM"
2012,republican,Romney,NM,Alamogordo,32.839901,-105.976,"1200 White Sands Blvd. #101, Alamogordo, NM"
2012,republican,Romney,NM,Albuquerque,35.134102,-106.641,"2420 Comanche Road NE, Suite H-1, Albuquerque, NM"
2012,republican,Romney,NM,Farmington,36.785801,-108.145,"4910 East Main Street, Farmington, NM"
2012,republican,Romney,NM,Las Cruces,32.347801,-106.815,"121 Wyatt Drive, Suite 15/16, Las Cruces, NM"
2012,republican,Romney,NM,Rio Rancho,35.2906,-106.715,"3188 Southern BLVD, Suite B, Rio Rancho, NM"
2012,republican,Romney,NM,Roswell,33.485199,-104.551,"1400 WEST 2ND STREET SUITE A, Roswell, NM"
2012,republican,Romney,NM,Santa Fe,35.616699,-105.979,"1587 PACHECO STREET, Santa Fe, NM"
2012,republican,Romney,NC,Raleigh,35.7883,-78.653198,"1506 Hillsborough St., Raleigh, NC"
2012,republican,Romney,NC,Asheboro,35.6861,-79.829201,"122 Sunset Ave., Asheboro, NC"
2012,republican,Romney,NC,Asheville,35.5909,-82.583,"16 Regent Park Blvd., Asheville, NC"
2012,republican,Romney,NC,Bolivia,34.0065,-78.190399,"971 Old Ocean Hwy, Bolivia, NC"
2012,republican,Romney,NC,Burlington,36.0723,-79.469803,"2659 Ramada Rd, Burlington, NC"
2012,republican,Romney,NC,Charlotte,35.207699,-80.838699,"1329 East Morehead Street, Charlotte, NC"
2012,republican,Romney,NC,Concord,35.4091,-80.579597,"80 Union Street South, Concord, NC"
2012,republican,Romney,NC,Durham,36.034599,-78.868896,"3600 N. Duke Street Suite 19, Durham, NC"
2012,republican,Romney,NC,Edenton,36.0933,-76.620796,"437 S. Broad St., Edenton, NC"
2012,republican,Romney,NC,Fayetteville,35.055698,-78.882896,"421 Maiden Lane, Fayetteville, NC"
2012,republican,Romney,NC,Gastonia,35.262901,-81.186501,"155 South York St., Gastonia, NC"
2012,republican,Romney,NC,Greensboro,36.070099,-79.854401,"3950 W. Market Street, Greensboro, NC"
2012,republican,Romney,NC,Greenville,35.5895,-77.3778,"103B Commerce Street, Greenville, NC"
2012,republican,Romney,NC,Hendersonville,35.299,-82.453598,"1034-B Greenville Hwy, Hendersonville, NC"
2012,republican,Romney,NC,Mooresville,35.5718,-80.892303,"136 Corporate Park Dr., Suite B, Mooresville, NC"
2012,republican,Romney,NC,Cornelius,35.4776,-80.892403,"8301-17 Magnolia Estates Dr., Cornelius, NC"
2012,republican,Romney,NC,Raleigh,35.844799,-78.632599,"811 Spring Forest Rd., Raleigh, NC"
2012,republican,Romney,NC,Rocky Mount,35.950298,-77.818298,"1616 Sunset Ave, Rocky Mount, NC"
2012,republican,Romney,NC,Salisbury,35.6796,-80.466499,"118 S. Main St., Salisbury, NC"
2012,republican,Romney,NC,Smithfield,35.5065,-78.344498,"333 East Market St., Smithfield, NC"
2012,republican,Romney,NC,Southern Pines,35.180401,-79.3908,"230 S. West Broad St., Southern Pines, NC"
2012,republican,Romney,NC,Sylva,35.3727,-83.207703,"58 Sunrise Park Dr., Suite D, Sylva, NC"
2012,republican,Romney,NC,Wilmington,34.2215,-77.884499,"3500 Oleander Dr., Suite E-19, Wilmington, NC"
2012,republican,Romney,NC,Winston-Salem,36.083599,-80.2575,"667 Peters Creek Parkway, Winston-Salem, NC"
2012,republican,Romney,OH,Columbus,39.98,-83.063499,"1335 Dublin Rd., Columbus, OH"
2012,republican,Romney,OH,Ashtabula,41.863998,-80.7612,"2525 South Ridge Rd East, Ashtabula, OH"
2012,republican,Romney,OH,Athens,39.329601,-82.101097,"14 N Court St., Athens, OH"
2012,republican,Romney,OH,Avon Lake,41.494598,-81.988503,"375-J Lear Rd, Avon Lake, OH"
2012,republican,Romney,OH,Beavercreek,39.7215,-84.062202,"3297 Seajay Dr, Beavercreek, OH"
2012,republican,Romney,OH,Bowling Green,41.374599,-83.650002,"111 South Main Street, Bowling Green, OH"
2012,republican,Romney,OH,Canton,40.8358,-81.421997,"3976-B Fulton Dr NW, Canton, OH"
2012,republican,Romney,OH,Centerville,39.6315,-84.180496,"7720 Paragon Rd, Centerville, OH"
2012,republican,Romney,OH,Chillicothe,39.333801,-82.978203,"129 East Main Street, Chillicothe, OH"
2012,republican,Romney,OH,Colerain Township,39.220798,-84.584198,"8240 Clara Ave, Colerain Township, OH"
2012,republican,Romney,OH,Dover,40.517502,-81.469803,"203 S. Wooster Ave, Dover, OH"
2012,republican,Romney,OH,Cincinnati,39.066399,-84.280502,"813 Eastgate South Drive, Cincinnati, OH"
2012,republican,Romney,OH,Fairview Park,41.4389,-81.871002,"22641 Lorain Road, Fairview Park, OH"
2012,republican,Romney,OH,Findlay,41.037601,-83.650299,"404 South Main Street, Findlay, OH"
2012,republican,Romney,OH,Columbus,39.98,-83.063499,"1335 Dublin Rd Suite 110F, Columbus, OH"
2012,republican,Romney,OH,Grove City,39.8783,-83.057899,"2065-A Stringtown Rd, Grove City, OH"
2012,republican,Romney,OH,Heath,40.0261,-82.446999,"1006 Hebron Rd, Heath, OH"
2012,republican,Romney,OH,Independence,41.386101,-81.641701,"6490 Brecksville Road, Independence, OH"
2012,republican,Romney,OH,Kent,41.152699,-81.356796,"175 East Erie St, Kent, OH"
2012,republican,Romney,OH,Cincinnati,39.261398,-84.361397,"8220 Northcreek Drive, Cincinnati, OH"
2012,republican,Romney,OH,Lancaster,39.713699,-82.601303,"118 East Main Street, Lancaster, OH"
2012,republican,Romney,OH,Lebanon,39.433498,-84.209702,"30 West Main Street, Lebanon, OH"
2012,republican,Romney,OH,Liberty Township,39.425201,-84.454201,"4879 Mercedes Drive, Liberty Township, OH"
2012,republican,Romney,OH,Lima,40.764099,-84.1464,"2062 N Cable Rd, Lima, OH"
2012,republican,Romney,OH,Lisbon,40.772099,-80.769096,"124 West Lincoln Way, Lisbon, OH"
2012,republican,Romney,OH,Marietta,39.4114,-81.451599,"119 Greene Street, Marietta, OH"
2012,republican,Romney,OH,Maumee,41.583599,-83.671204,"326 W Dussel Dr, Maumee, OH"
2012,republican,Romney,OH,Menton,41.654499,-81.373703,"7488 Mentor Ave, Menton, OH"
2012,republican,Romney,OH,Niles,41.2104,-80.750603,"5555 Youngstown Warren Rd, Niles, OH"
2012,republican,Romney,OH,Ontario,40.771599,-82.589203,"2069 West 4th St, Ontario, OH"
2012,republican,Romney,OH,Portsmouth,38.734901,-83,"612 6th Street, Portsmouth, OH"
2012,republican,Romney,OH,Reynoldsburg,39.945,-82.795799,"1940 Baltimore Reynoldsburg Rd, Reynoldsburg, OH"
2012,republican,Romney,OH,Richmond Heights,41.538399,-81.493103,"5164-B Wilson Mills Road, Richmond Heights, OH"
2012,republican,Romney,OH,Steubenville,40.366402,-80.670998,"100 Mall Dr B-8, Steubenville, OH"
2012,republican,Romney,OH,Stow,41.170898,-81.440399,"3889 Darrow Rd, Stow, OH"
2012,republican,Romney,OH,Wadsworth,41.058701,-81.737,"300 Weatherstone Dr, Ste 107, Wadsworth, OH"
2012,republican,Romney,OH,Columbus,40.137299,-82.991699,"8489 Sancus Blvd, Columbus, OH"
2012,republican,Romney,OH,Cincinnati,39.1567,-84.570297,"2300 Montana Ave, Cincinnati, OH"
2012,republican,Romney,OH,Wooster,40.798801,-81.938499,"120 N Buckeye St, Wooster, OH"
2012,republican,Romney,OH,Youngstown,41.024502,-80.680099,"621 Boardman Canfield Road, Youngstown, OH"
2012,republican,Romney,PA,Springfield,39.914001,-75.342102,"1001 Baltimore Pike, Springfield, PA"
2012,republican,Romney,PA,Bensalem,40.0854,-74.933098,"3070 Bristol Pike, Bensalem, PA"
2012,republican,Romney,PA,Bethlehem,40.644001,-75.404198,"2335 Schoenersville Rd., Bethlehem, PA"
2012,republican,Romney,PA,Conshohocken,40.094501,-75.287697,"200 West Ridge Pike, Conshohocken, PA"
2012,republican,Romney,PA,Doylestown,40.313099,-75.1306,"115 N Broad St., Doylestown, PA"
2012,republican,Romney,PA,Erie,42.102501,-80.129799,"2206 West 15th Street, Erie, PA"
2012,republican,Romney,PA,Greensburg,40.3032,-79.543404,"23 N. Maple Ave., Greensburg, PA"
2012,republican,Romney,PA,Harrisburg,40.304298,-76.8078,"4813 Jonestown Road, Harrisburg, PA"
2012,republican,Romney,PA,Horsham,40.1647,-75.152397,"2 Village Road, Horsham, PA"
2012,republican,Romney,PA,Johnstown,40.283798,-78.866898,"450 Lurray Ave., Johnstown, PA"
2012,republican,Romney,PA,Lancaster,40.038101,-76.323799,"902 Columbia Ave, Lancaster, PA"
2012,republican,Romney,PA,Mechanicsburg,40.212601,-77.010498,"1 S. Frederick St, Mechanicsburg, PA"
2012,republican,Romney,PA,Paoli,40.042301,-75.483597,"21 Plank Ave, Ste. 300, Paoli, PA"
2012,republican,Romney,PA,Philadelphia,39.941898,-75.149101,"529 S. 4th Street, Philadelphia, PA"
2012,republican,Romney,PA,Pittsburgh,40.421398,-80.048798,"100 Fleet Street, Pittsburgh, PA"
2012,republican,Romney,PA,Rochester,40.704102,-80.2798,"426 Adams Street, Rochester, PA"
2012,republican,Romney,PA,Scranton,41.410198,-75.665901,"335 N Washington Avenue, Scranton, PA"
2012,republican,Romney,PA,Springfield,39.914398,-75.3424,"1001 Baltimore Pike, Springfield, PA"
2012,republican,Romney,PA,State College,40.794399,-77.859001,"205 E. Beaver Ave., State College, PA"
2012,republican,Romney,PA,Stroudsburg,40.997398,-75.254997,"117 Pipher Lane, Stroudsburg, PA"
2012,republican,Romney,PA,West Chester,39.958698,-75.604897,"15 S. Church Street, West Chester, PA"
2012,republican,Romney,PA,West Reading,40.3372,-75.949303,"529 Reading Ave., West Reading, PA"
2012,republican,Romney,PA,Wexford,40.615299,-80.058701,"3500 Brooketree Road, Wexford, PA"
2012,republican,Romney,PA,Wilkes-Barre,41.244598,-75.883301,"34 S. Main Street, Wilkes-Barre, PA"
2012,republican,Romney,PA,York,39.971001,-76.676498,"2453 Kingston Ct., York, PA"
2012,republican,Romney,UT,Orem,40.277401,-111.727,"1120 S 1350 W., Orem, UT"
2012,republican,Romney,UT,Logan,41.780998,-111.809,"1451 North 200 East, Ste. 190-B, Logan, UT"
2012,republican,Romney,UT,Midvale,40.6208,-111.889,"47 East 7200 South, Midvale, UT"
2012,republican,Romney,UT,St. George,37.118401,-113.599,"134 North 200 East, Ste. 202, St. George, UT"
2012,republican,Romney,VA,Arlington,38.8829,-77.105904,"3811 N Fairfax Drive, Suite 750, Arlington, VA"
2012,republican,Romney,VA,Abingdon,36.698299,-82.010696,"1060 West Main Street, Abingdon, VA"
2012,republican,Romney,VA,Alexandria,38.8055,-77.072601,"25 S Dove St, Alexandria, VA"
2012,republican,Romney,VA,Blacksburg,37.227699,-80.413597,"215 Draper Road, NW, Blacksburg, VA"
2012,republican,Romney,VA,Charlottesville,38.081299,-78.472,"455 Albemarle Square, Charlottesville, VA"
2012,republican,Romney,VA,Chesapeake,36.719799,-76.239601,"124 S. Battlefield Blvd, Chesapeake, VA"
2012,republican,Romney,VA,Richmond,37.4468,-77.570602,"9503 Hull Street Road, Richmond, VA"
2012,republican,Romney,VA,Chester,37.358299,-77.445099,"3610 Festival Park Plaza, Chester, VA"
2012,republican,Romney,VA,Danville,36.609501,-79.407303,"625 Piney Forest Road, Danville, VA"
2012,republican,Romney,VA,Fairfax,38.839901,-77.311798,"4246 Chain Bridge Road, Fairfax, VA"
2012,republican,Romney,VA,Fredericksburg,38.301701,-77.513496,"1311 Central Park Blvd, Fredericksburg, VA"
2012,republican,Romney,VA,Harrisonburg,38.426601,-78.845901,"182 Neff Avenue, Harrisonburg, VA"
2012,republican,Romney,VA,Henrico,37.627399,-77.5467,"2819 N. Parham Road, Henrico, VA"
2012,republican,Romney,VA,Williamsburg,37.258099,-76.739601,"5251 John tyler Highway, Williamsburg, VA"
2012,republican,Romney,VA,Leesburg,39.113499,-77.565102,"18 Royal Street, Leesburg, VA"
2012,republican,Romney,VA,Lynchburg,37.390202,-79.161301,"3700 Candlers Mountain Road, Lynchburg, VA"
2012,republican,Romney,VA,McLean,38.936798,-77.1819,"6867 Elm Street, McLean, VA"
2012,republican,Romney,VA,Newport News,37.0886,-76.501999,"12715 Warwick Blvd, Newport News, VA"
2012,republican,Romney,VA,Norfolk,36.956001,-76.253403,"193 W Ocean View Ave, Norfolk, VA"
2012,republican,Romney,VA,Woodbridge,38.674702,-77.341499,"4431 Prince William Parkway, Woodbridge, VA"
2012,republican,Romney,VA,Bristow,38.7328,-77.5513,"10286 Bristow Center Dr, Bristow, VA"
2012,republican,Romney,VA,Richmond,37.543701,-77.441498,"115 E. Grace Street, Richmond, VA"
2012,republican,Romney,VA,Roanoke,37.2271,-79.980499,"2706 Ogden Road, SW, Roanoke, VA"
2012,republican,Romney,VA,Springfield,38.781101,-77.180901,"6320 Augusta Dr, Springfield, VA"
2012,republican,Romney,VA,Stafford,38.459499,-77.406502,"2773 Jefferson Davis Hwy, Stafford, VA"
2012,republican,Romney,VA,Sterling,39.015598,-77.377899,"21430 Cedar Dr, Sterling, VA"
2012,republican,Romney,VA,Virginia Beach,36.855499,-76.025101,"911 First Colonial Road, Virginia Beach, VA"
2012,republican,Romney,VA,Warrenton,38.714298,-77.797997,"74 Waterloo Street, Warrenton, VA"
2012,republican,Romney,VA,Winchester,39.1759,-78.166801,"101 Millwood Ave, Winchester, VA"
2012,republican,Romney,WI,Fitchburg,43.036701,-89.445,"2980 Cahill Main, Suite 203, Fitchburg, WI"
2012,republican,Romney,WI,Appleton,44.277,-88.394402,"609 W. College Avenue, Suite C, Appleton, WI"
2012,republican,Romney,WI,Baraboo,43.483501,-89.747498,"414 Broadway Street, Baraboo, WI"
2012,republican,Romney,WI,Altoona,44.804199,-91.439598,"2316 N. Hillcrest Parkway, Altoona, WI"
2012,republican,Romney,WI,Elkhorn,42.711102,-88.542099,"18 W Walworth Avenue, Elkhorn, WI"
2012,republican,Romney,WI,Fond Du Lac,43.769901,-88.428101,"55 N Macy Street, Fond Du Lac, WI"
2012,republican,Romney,WI,Franklin,42.896099,-88.008904,"7198 S 76th Street, #13, Franklin, WI"
2012,republican,Romney,WI,Germantown,43.2192,-88.120399,"W177N9886 Rivercrest Drive, Suite 103, Germantown, WI"
2012,republican,Romney,WI,Green Bay,44.489101,-88.016701,"1915 S. Webster Avenue, Suite C., Green Bay, WI"
2012,republican,Romney,WI,Hudson,44.9785,-92.720001,"213 S. 2nd Street, Hudson, WI"
2012,republican,Romney,WI,Janesville,42.691502,-89.042801,"37 Main Street, Janesville, WI"
2012,republican,Romney,WI,Kenosha,42.559799,-87.878799,"5901 75th Street, Suite 170, Kenosha, WI"
2012,republican,Romney,WI,La Crosse,43.848701,-91.249199,"58 Copeland Avenue, La Crosse, WI"
2012,republican,Romney,WI,Whitefish Bay,43.143501,-87.908897,"324 E Silver Spring Drive, Whitefish Bay, WI"
2012,republican,Romney,WI,Platteville,42.7439,-90.486298,"20 S Court Street, Platteville, WI"
2012,republican,Romney,WI,Racine,42.730801,-87.858299,"6211 Durand Avenue, Suite 203, Racine, WI"
2012,republican,Romney,WI,Sheboygan,43.736099,-87.728897,"2125 S. Memorial Place Drive, Sheboygan, WI"
2012,republican,Romney,WI,Stevens Point,44.524101,-89.556198,"5720 Windy Dr, Suite B, Stevens Point, WI"
2012,republican,Romney,WI,Superior,46.684299,-92.094704,"3215 Tower Avenue, Suite 106, Superior, WI"
2012,republican,Romney,WI,Waukesha,43.015301,-88.209198,"1701 Pearl Street, Unit 2-M, Waukesha, WI"
2012,republican,Romney,WI,Wausau,44.958401,-89.669296,"540 S Third Avenue, Wausau, WI"
2012,republican,Romney,WI,Milwaukee,43.0485,-88.042397,"1233 N. Mayfair Road, Suite 111, Milwaukee, WI"
2012,republican,Romney,WI,West Allis,43.020401,-88.012703,"1488 S 84th Street, West Allis, WI"
2012,republican,Romney,WI,West Bend,43.403301,-88.180298,"519 Hickory Street, West Bend, WI"
2016,democrat,Clinton,AK,Anchorage,61.196594,-149.87288,"2604 Fairbanks Street, Suite B, Anchorage, AK"
2016,democrat,Clinton,AL,Birmingham,33.513897,-86.805054,"2013 Morris Avenue, Birmingham, AL"
2016,democrat,Clinton,AR,Little Rock,34.770462,-92.357025,"7509 Cantrell Road, Suite 103, Little Rock, AR"
